,city,region,type_of_settlements,year,population,latitude_point,longitude_point
0,Руське Поле,zakarpat,vilage,-1303.0,6112.0,48.05638888888888,23.538333333333334
1,Жулин,lviv,vilage,-1240.0,968.0,49.17722222222222,23.773055555555555
2,Кілія,,city,-862.0,,45.4675,29.23777777777778
3,Феодосія,,city,-600.0,69145.0,45.04888888888889,35.37916666666667
4,Керч,,city,-530.0,149566.0,45.35,36.46666666666667
5,Білгород-Дністровський,,city,-498.0,,46.19222222222222,30.333333333333332
6,Євпаторія,,city,-497.0,107040.0,45.2,33.36666666666667
7,Пшеничники (Калуський район),ivan_frank,vilage,0.0,345.0,48.89694444444444,23.864722222222223
8,Тернувате (Василівський район),zaporiz,vilage,1.0,46.0,47.42638888888889,35.566944444444445
9,Шрубків,xmelnitsk,vilage,14.0,655.0,49.48916666666667,27.42527777777778
10,Потік (Івано-Франківський район),ivan_frank,vilage,19.0,697.0,49.41722222222222,24.581666666666667
11,Замостя (Вижницький район),chernivtsi,vilage,35.0,2106.0,48.35166666666667,25.421944444444446
12,Перекоп (Армянська міська рада),krym,vilage,100.0,894.0,46.16111111111111,33.69222222222222
13,Старий Крим,,city,100.0,9478.0,45.02916666666667,35.08555555555556
14,Добронадіївка,kirivigrad,vilage,100.0,824.0,48.5925,33.39222222222222
15,Дібрівка (Кропивницький район),kirivigrad,vilage,108.0,239.0,48.02444444444444,32.12638888888889
16,Лопушне (Закарпатська область),zakarpat,vilage,160.0,650.0,48.65138888888889,23.593055555555555
17,Нововасилівське (Гуляйпільський район),zaporiz,vilage,182.0,73.0,47.778055555555554,36.4325
18,Судак (місто),,city,212.0,15532.0,44.85,34.96666666666667
19,Галич,,city,260.0,6307.0,49.13944444444444,24.731666666666666
20,Алушта,,city,500.0,28295.0,44.66916666666666,34.403055555555554
21,Витачів,kyiv,vilage,500.0,945.0,50.11388888888889,30.872222222222224
22,Теребежі (Заболотцівська сільська громада),lviv,vilage,600.0,53.0,49.94888888888889,25.052222222222223
23,Залісся (Підкамінська селищна громада),lviv,vilage,600.0,90.0,49.988055555555555,25.22083333333333
24,Тетильківці (Золочівський район),lviv,vilage,600.0,213.0,49.965,25.356944444444444
25,Тріщуки,lviv,vilage,600.0,226.0,49.965,25.08611111111111
26,Ковпин Ставок,lviv,vilage,600.0,283.0,50.07527777777778,25.06861111111111
27,Новичина,lviv,vilage,600.0,116.0,49.96388888888889,25.110000000000003
28,Збруї,lviv,vilage,600.0,154.0,50.15138888888889,24.935
29,Орани,lviv,vilage,600.0,87.0,49.969722222222224,25.172222222222224
30,Шпаки,lviv,vilage,600.0,218.0,49.97277777777778,25.390833333333333
31,Сухота,lviv,vilage,600.0,144.0,50.02305555555555,25.163055555555555
32,Смільне,lviv,vilage,600.0,662.0,50.0775,25.11277777777778
33,Лучківці,lviv,vilage,600.0,869.0,49.995,25.01888888888889
34,Микити,lviv,vilage,600.0,395.0,49.98305555555556,25.333055555555557
35,Лісове (Бродівська міська громада),lviv,vilage,600.0,121.0,50.228611111111114,25.05027777777778
36,Підгір'я (Бродівська міська громада),lviv,vilage,600.0,444.0,49.97277777777778,25.131666666666668
37,Липина (Золочівський район),lviv,vilage,600.0,234.0,49.99111111111111,25.140833333333333
38,Дудин,lviv,vilage,600.0,272.0,49.94277777777778,25.40888888888889
39,Кути (Бродівська міська громада),lviv,vilage,600.0,250.0,50.15888888888889,24.87638888888889
40,Переліски (Золочівський район),lviv,vilage,600.0,212.0,49.95861111111111,25.15361111111111
41,Дубина (Золочівський район),lviv,vilage,600.0,245.0,49.97694444444445,25.098888888888887
42,Сидинівка,lviv,vilage,600.0,224.0,50.077222222222225,25.091388888888886
43,Нем'яч,lviv,vilage,600.0,1565.0,49.93444444444444,25.373055555555556
44,Панькова,lviv,vilage,600.0,68.0,50.170833333333334,24.864444444444445
45,Косарщина,lviv,vilage,600.0,76.0,50.047777777777775,25.092222222222222
46,Загірці (Золочівський район),lviv,vilage,600.0,82.0,49.9575,24.97694444444444
47,Королівка (Золочівський район),lviv,vilage,600.0,149.0,50.27972222222222,25.09472222222222
48,Салашка,lviv,vilage,600.0,295.0,50.00888888888889,25.192222222222224
49,Буковець (Мукачівський район),zakarpat,vilage,635.0,598.0,48.85888888888889,22.933888888888887
50,Дніпровське (Чернігівський район),chernihiv,vilage,700.0,427.0,51.3525,30.68
51,Київ,,city,700.0,2954300.0,50.45,30.52361111111111
52,Коростень,,city,705.0,63300.0,50.97361111111111,28.614444444444445
53,Грушка (Івано-Франківський район),ivan_frank,vilage,734.0,1318.0,48.81333333333333,25.057222222222222
54,Волощина (Тернопільський район),ternopil,vilage,785.0,320.0,49.31111111111111,25.009722222222223
55,Орихівчик,lviv,vilage,800.0,315.0,49.86083333333333,25.31527777777778
56,Стольне,chernihiv,vilage,800.0,1406.0,51.51222222222222,31.92
57,Гребельки,kyiv,vilage,821.0,78.0,50.599722222222226,31.104444444444447
58,Мельники (Івано-Франківський район),ivan_frank,vilage,835.0,284.0,48.82972222222222,25.028888888888886
59,Кулажинці (Броварський район),kyiv,vilage,857.0,334.0,50.55027777777777,31.209166666666665
60,Пушкарі (Козелецький район),chernihiv,vilage,880.0,97.0,50.93083333333333,31.047777777777778
61,Кукарі,chernihiv,vilage,882.0,33.0,51.689166666666665,30.602222222222224
62,Гірки (Ріпкинський район),,Urban_Vilige,882.0,2.0,51.68,30.635555555555555
63,Малин,,city,891.0,25587.0,50.76888888888889,29.27
64,Мукачево,,city,896.0,85903.0,48.44138888888889,22.71361111111111
65,Світильня,kyiv,vilage,897.0,1284.0,50.569722222222225,31.149166666666666
66,Полтава,,city,899.0,283037.0,49.589444444444446,34.551111111111105
67,Озерне (Козелецький район),chernihiv,vilage,900.0,240.0,50.82222222222222,30.98638888888889
68,Саварка,kyiv,vilage,900.0,957.0,49.58722222222222,30.65833333333333
69,Кодаки,kyiv,vilage,901.0,1.0,50.099444444444444,30.267777777777777
70,Переяслав,,city,907.0,26994.0,50.066111111111105,31.442222222222224
71,Чернігів,,city,907.0,285056.0,51.49111111111111,31.298611111111114
72,Новосілка (Підгаєцька міська громада),ternopil,vilage,918.0,1185.0,49.30888888888889,25.176944444444445
73,Медвин (Богуславський район),kyiv,vilage,920.0,2845.0,49.390277777777776,30.784722222222225
74,Лавки (село),zakarpat,vilage,936.0,1299.0,48.480000000000004,22.694444444444446
75,Вишгород,,city,946.0,30997.0,50.58722222222222,30.48888888888889
76,Тисмениця,,city,950.0,9325.0,48.901944444444446,24.848055555555554
77,Келихів,ivan_frank,vilage,950.0,410.0,48.49,25.33611111111111
78,Лютіж (Вишгородський район),kyiv,vilage,975.0,2282.0,50.68472222222222,30.394444444444446
79,Олевськ,,city,977.0,10389.0,51.22777777777778,27.648055555555555
80,Овруч,,city,977.0,15795.0,51.324444444444445,28.808055555555555
81,Долина (місто),,city,979.0,20619.0,48.98083333333334,24.0025
82,Пухівка,kyiv,vilage,980.0,1996.0,50.605555555555554,30.71333333333333
83,Русанів,kyiv,vilage,980.0,1685.0,50.50055555555556,31.163055555555555
84,Ізяслав,,city,987.0,16336.0,50.11888888888889,26.82138888888889
85,Лубни,,city,988.0,46161.0,50.01611111111111,32.98861111111111
86,Володимир-Волинський,,city,988.0,38901.0,50.84805555555556,24.322222222222223
87,Васильків,,city,988.0,37310.0,50.186388888888885,30.330555555555556
88,Сенча,poltava,vilage,989.0,3037.0,50.25527777777778,33.36527777777778
89,Чорногородка,kyiv,vilage,991.0,619.0,50.22222222222222,29.96861111111111
90,Глухів,,city,992.0,33548.0,51.67472222222222,33.913333333333334
91,Нижній Березів,ivan_frank,vilage,993.0,1231.0,48.402499999999996,24.851944444444445
92,Середній Березів,ivan_frank,vilage,994.0,1457.0,48.420833333333334,24.809166666666666
93,Полонне,,city,996.0,20620.0,50.11666666666667,27.516666666666666
94,Виноградів,,city,1000.0,25395.0,48.14972222222222,23.025
95,Глещава,ternopil,vilage,1000.0,779.0,49.30277777777778,25.86777777777778
96,Застугна (Обухівський район),kyiv,vilage,1000.0,50.0,50.14055555555556,30.488333333333333
97,Копачів (Обухівський район),kyiv,vilage,1000.0,477.0,50.119166666666665,30.485
98,Сколе,,city,1000.0,6269.0,49.03777777777778,23.51388888888889
99,Будятичі,Volins,vilage,1000.0,636.0,50.7075,24.175
100,Ростань,Volins,vilage,1000.0,410.0,51.597500000000004,23.698055555555555
101,Турка,,city,1000.0,7153.0,49.1575,23.022499999999997
102,Більче-Золоте,ternopil,vilage,1000.0,1785.0,48.774166666666666,25.876944444444444
103,Алупка,,city,1000.0,8528.0,44.42166666666667,34.04722222222222
104,Хотин,,city,1002.0,16857.0,48.50944444444445,26.491944444444446
105,Лючки,ivan_frank,vilage,1005.0,535.0,48.43388888888889,24.747222222222224
106,Висоцьк (Дубровицький район),rivne,vilage,1005.0,1999.0,51.72166666666667,26.65083333333333
107,Дубровиця,,city,1005.0,9394.0,51.56666666666667,26.566666666666666
108,Семигинів,lviv,vilage,1015.0,1513.0,49.15333333333333,23.737222222222222
109,Бориспіль,,city,1015.0,63169.0,50.35111111111111,30.950833333333332
110,Велика Мотовилівка,kyiv,vilage,1018.0,1321.0,50.135555555555555,30.08972222222222
111,Лісок (Золочівський район),lviv,vilage,1021.0,360.0,49.933055555555555,24.45611111111111
112,Демидів (Вишгородський район),kyiv,vilage,1026.0,3.0,50.727222222222224,30.327222222222222
113,Андріївка (Бучанський район),kyiv,vilage,1027.0,1082.0,50.55138888888889,29.836666666666666
114,Белз,,city,1030.0,2267.0,50.38,24.001666666666665
115,Трипілля,kyiv,vilage,1032.0,3001.0,50.115,30.77638888888889
116,Корсунь-Шевченківський,,city,1032.0,22.0,49.419444444444444,31.27722222222222
117,Богуслав,,city,1032.0,16190.0,49.54666666666667,30.872777777777777
118,Біла Церква,,city,1032.0,208737.0,49.79555555555555,30.116666666666667
119,Молошковичі,lviv,vilage,1036.0,678.0,49.886944444444445,23.55611111111111
120,Деремезна,kyiv,vilage,1038.0,433.0,50.01166666666666,30.50111111111111
121,Селезівка,zitomer,vilage,1039.0,249.0,51.535,28.107222222222223
122,Новгород-Сіверський,,city,1044.0,13031.0,51.983333333333334,33.266666666666666
123,Козіївка (Обухівський район),kyiv,vilage,1050.0,117.0,50.077222222222225,30.690833333333334
124,Нагуєвичі,lviv,vilage,1050.0,2518.0,49.36194444444445,23.320555555555554
125,Карапиші,kyiv,vilage,1050.0,3081.0,49.65222222222222,30.781666666666666
126,Оксанівка,Vinitsa,vilage,1050.0,40.0,48.2325,28.191666666666666
127,Гульськ,zitomer,vilage,1050.0,1360.0,50.51916666666666,27.72111111111111
128,Городище (місто),,city,1050.0,13984.0,49.2925,31.458055555555553
129,Красне Перше (Обухівський район),kyiv,vilage,1050.0,465.0,50.07833333333333,30.673055555555557
130,Мединя,ivan_frank,vilage,1054.0,1511.0,49.09166666666667,24.576944444444443
131,Дібрівка (Тетіївський район),kyiv,vilage,1054.0,1437.0,49.31888888888889,29.759166666666665
132,Грицеволя,lviv,vilage,1056.0,554.0,50.21472222222223,24.96611111111111
133,Берегове,,city,1063.0,23732.0,48.2025,22.6375
134,Стіжок,ternopil,vilage,1064.0,368.0,50.17972222222222,25.865833333333335
135,Лисятичі,lviv,vilage,1070.0,3124.0,49.334722222222226,23.95861111111111
136,Білилівка,zitomer,vilage,1071.0,2193.0,49.67611111111111,29.008333333333333
137,Ніжин,,city,1078.0,67100.0,51.04277777777778,31.87361111111111
138,Канів,,city,1078.0,23742.0,49.74472222222222,31.45583333333333
139,Дрогобич,,city,1081.0,74610.0,49.35,23.5
140,Хорол (місто),,city,1083.0,13160.0,49.782222222222224,33.27388888888889
141,Дорогобуж (село),rivne,vilage,1084.0,663.0,50.61888888888889,26.56638888888889
142,Броди,,city,1084.0,23454.0,50.07805555555556,25.154166666666665
143,Луцьк,,city,1085.0,217197.0,50.74777777777778,25.324444444444445
144,Прилуки,,city,1085.0,56270.0,50.58916666666667,32.385555555555555
145,Біще,ternopil,vilage,1086.0,464.0,49.55027777777777,24.905277777777776
146,Хуст,,city,1090.0,28321.0,48.174166666666665,23.289722222222224
147,Піски (Миргородський район),poltava,vilage,1092.0,2509.0,50.37555555555556,33.44833333333333
148,Сокиринці (Прилуцький район),chernihiv,vilage,1092.0,1386.0,50.698611111111106,32.791666666666664
149,Переволочна (Прилуцький район),chernihiv,vilage,1092.0,689.0,50.63666666666666,32.661944444444444
150,Іванковичі,kyiv,vilage,1093.0,3000.0,50.27638888888889,30.42638888888889
151,Халеп'я,kyiv,vilage,1093.0,750.0,50.1025,30.82027777777778
152,Малополовецьке,kyiv,vilage,1094.0,1244.0,49.92166666666667,29.820833333333333
153,Побужани,lviv,vilage,1094.0,1040.0,50.01416666666667,24.559722222222224
154,Проців,kyiv,vilage,1096.0,1047.0,50.23555555555556,30.78611111111111
155,Вороньків,kyiv,vilage,1096.0,4100.0,50.21472222222223,30.899722222222223
156,Ромни,,city,1096.0,40497.0,50.74277777777778,33.48777777777778
157,Германівка (Обухівський район),kyiv,vilage,1096.0,1667.0,49.99305555555556,30.55611111111111
158,Буськ,,city,1097.0,8554.0,49.968333333333334,24.608333333333334
159,Перемиль,Volins,vilage,1097.0,1041.0,50.39611111111111,25.164166666666667
160,Теребовля,,city,1097.0,13515.0,49.300555555555555,25.699444444444445
161,Шепель (село),Volins,vilage,1097.0,455.0,50.785555555555554,25.123333333333335
162,Сокаль,,city,1098.0,20986.0,50.483333333333334,24.283333333333335
163,Остер (місто),,city,1098.0,6092.0,50.95472222222222,30.87361111111111
164,Кобижча,chernihiv,vilage,1100.0,3440.0,50.83555555555556,31.509166666666665
165,Боремель,rivne,vilage,1100.0,854.0,50.476111111111116,25.179722222222225
166,Бурківка (Ніжинський район),chernihiv,vilage,1100.0,476.0,51.115833333333335,32.106944444444444
167,Острог,,city,1100.0,15674.0,50.32916666666667,26.51972222222222
168,Корець,,city,1100.0,7245.0,50.617222222222225,27.160833333333333
169,Замчисько,rivne,vilage,1100.0,63.0,50.31027777777778,25.694444444444446
170,Потуш,Vinitsa,vilage,1100.0,125.0,49.024166666666666,28.6475
171,Шептаки (Україна),chernihiv,vilage,1100.0,639.0,52.066944444444445,33.138888888888886
172,Бирюки (Білоцерківський район),kyiv,vilage,1100.0,657.0,49.731388888888894,30.287222222222223
173,Дубно,,city,1100.0,38039.0,50.393055555555556,25.735
174,Дзвенигород,ternopil,vilage,1100.0,269.0,48.54527777777778,26.279722222222222
175,Балико-Щучинка,kyiv,vilage,1100.0,484.0,49.95333333333333,31.13722222222222
176,Чарторийськ,Volins,vilage,1100.0,1829.0,51.22416666666667,25.8825
177,Гребенів,lviv,vilage,1100.0,593.0,48.97555555555556,23.473611111111108
178,Кам'яниця (Дубенський район),rivne,vilage,1100.0,310.0,50.32833333333333,25.695555555555554
179,Підлужжя (Дубенський район),rivne,vilage,1100.0,436.0,50.355000000000004,25.699166666666667
180,Бобровиця,,city,1100.0,11030.0,50.75,31.386388888888888
181,Білопілля,,city,1100.0,15981.0,51.14611111111111,34.305277777777775
182,Новомильськ,rivne,vilage,1100.0,845.0,50.49916666666667,26.324166666666667
183,Вишеньки (Бориспільський район),kyiv,vilage,1101.0,3.0,50.30027777777777,30.732499999999998
184,Петропавлівська Борщагівка,kyiv,vilage,1113.0,6485.0,50.433611111111105,30.328333333333333
185,Мужієво,zakarpat,vilage,1114.0,2086.0,48.180277777777775,22.70583333333333
186,Ольшаниця,kyiv,vilage,1115.0,2493.0,49.665277777777774,30.624166666666667
187,Жовнине,cherkasy,vilage,1116.0,1058.0,49.38055555555555,32.68277777777777
188,Віта-Поштова,kyiv,vilage,1117.0,1584.0,50.319722222222225,30.383888888888887
189,Черепин (Львівський район),lviv,vilage,1122.0,277.0,49.71888888888889,24.148888888888887
190,Київець (Україна),lviv,vilage,1124.0,1220.0,49.43444444444444,24.02861111111111
191,Надиби,lviv,vilage,1125.0,1197.0,49.551111111111105,23.06722222222222
192,Зазим'я,kyiv,vilage,1128.0,2251.0,50.56805555555556,30.683333333333334
193,Керецьки,zakarpat,vilage,1132.0,4324.0,48.480000000000004,23.216666666666665
194,Синів,rivne,vilage,1134.0,1560.0,50.62277777777778,26.75111111111111
195,Дерев'яна,kyiv,vilage,1136.0,533.0,50.10944444444445,30.69
196,Житомир,,city,1137.0,264318.0,50.254444444444445,28.657777777777778
197,Стара Котельня,zitomer,vilage,1138.0,1309.0,50.10805555555556,28.959166666666665
198,Малютинці,poltava,vilage,1139.0,753.0,50.26,32.186388888888885
199,Кагарлик,,city,1142.0,13726.0,49.852222222222224,30.809166666666666
200,Ярославичі (Млинівський район),rivne,vilage,1145.0,978.0,50.62583333333333,25.455277777777777
201,Нова Прилука,Vinitsa,vilage,1146.0,1942.0,49.37694444444445,28.70111111111111
202,Стара Прилука,Vinitsa,vilage,1146.0,1575.0,49.39277777777778,28.718055555555555
203,Путивль,,city,1146.0,15778.0,51.33638888888889,33.863055555555555
204,Ларинівка,chernihiv,vilage,1146.0,225.0,52.00861111111111,33.01777777777777
205,Бахмач,,city,1147.0,17599.0,51.175555555555555,32.827222222222225
206,Яловичі,rivne,vilage,1147.0,202.0,50.64944444444444,25.39
207,Бахмач (село),chernihiv,vilage,1147.0,3009.0,51.1975,32.77388888888889
208,Носівка,,city,1147.0,13723.0,50.93,31.58
209,Погребище,,city,1148.0,9382.0,49.48694444444445,29.273333333333333
210,Зоря (Броварський район),kyiv,vilage,1148.0,271.0,50.55333333333333,30.947222222222223
211,Гоголів (Броварський район),kyiv,vilage,1148.0,5016.0,50.519999999999996,31.029166666666665
212,Глинськ (Роменський район),sumsk,vilage,1149.0,1654.0,50.619166666666665,33.32666666666667
213,Пересопниця,rivne,vilage,1149.0,139.0,50.66861111111111,25.993055555555557
214,Шумськ,,city,1149.0,5417.0,50.11416666666667,26.114444444444445
215,Ожарівка,xmelnitsk,vilage,1149.0,184.0,49.785555555555554,27.691111111111113
216,Гарт (Ніжинський район),chernihiv,vilage,1150.0,12.0,50.671388888888885,31.500555555555554
217,Бовшів,ivan_frank,vilage,1150.0,1473.0,49.203611111111115,24.699166666666667
218,Білів,rivne,vilage,1150.0,411.0,50.69472222222222,25.974166666666665
219,Феневичі,kyiv,vilage,1150.0,1350.0,50.84277777777778,30.075
220,Буглаки (Ніжинський район),chernihiv,vilage,1150.0,7.0,50.75472222222222,31.647222222222222
221,Устилуг,,city,1150.0,2176.0,50.86,24.15694444444444
222,Радомишль,,city,1150.0,14348.0,50.49472222222222,29.233333333333334
223,Вілія (Кременецький район),ternopil,vilage,1150.0,615.0,50.05222222222222,25.88611111111111
224,Ушомир,zitomer,vilage,1150.0,1323.0,50.86055555555556,28.467499999999998
225,Старий Корець,rivne,vilage,1150.0,730.0,50.58972222222222,27.197222222222223
226,Комань,chernihiv,vilage,1150.0,220.0,51.983333333333334,33.339444444444446
227,Осовець (Ніжинський район),chernihiv,vilage,1150.0,192.0,50.63527777777778,31.487222222222222
228,Татарівка,chernihiv,vilage,1150.0,5.0,50.75388888888889,31.67888888888889
229,Сапожин,rivne,vilage,1151.0,586.0,50.57777777777778,26.893055555555556
230,Ржищів,,city,1151.0,7447.0,49.961111111111116,31.04361111111111
231,Блистова (Менський район),chernihiv,vilage,1151.0,1150.0,51.41722222222222,31.91916666666667
232,Мазінки,kyiv,vilage,1151.0,744.0,50.164722222222224,31.360555555555557
233,Заріцьк,rivne,vilage,1151.0,377.0,50.61083333333333,25.92361111111111
234,Поліське (Шепетівський район),xmelnitsk,vilage,1152.0,704.0,50.10388888888889,26.584999999999997
235,Тихомель,xmelnitsk,vilage,1152.0,272.0,49.96333333333334,26.25722222222222
236,Хоробичі,chernihiv,vilage,1153.0,629.0,52.024166666666666,31.51222222222222
237,Ужгород,,city,1154.0,115512.0,48.62388888888889,22.295
238,Свидовець (Ніжинський район),chernihiv,vilage,1155.0,343.0,50.74027777777778,31.575555555555557
239,Дем'янці (Переяслав-Хмельницький район),kyiv,vilage,1155.0,1426.0,50.11666666666667,31.405277777777776
240,Лутава,chernihiv,vilage,1155.0,251.0,50.96222222222222,30.80611111111111
241,Щаснівка (Ніжинський район),chernihiv,vilage,1155.0,186.0,50.64472222222222,31.490555555555556
242,Пирятин,,city,1155.0,15558.0,50.236111111111114,32.50111111111111
243,Браниця,chernihiv,vilage,1155.0,695.0,50.82555555555556,31.389722222222222
244,Привітне (Володимир-Волинський район),Volins,vilage,1156.0,1351.0,50.63722222222222,24.74888888888889
245,Фалемичі,Volins,vilage,1156.0,231.0,50.80333333333333,24.36861111111111
246,Вижниця,,city,1158.0,3875.0,48.25,25.191666666666666
247,Дідівка (Вараський район),rivne,vilage,1158.0,139.0,51.850833333333334,25.738055555555558
248,Млин (Вараський район),rivne,vilage,1158.0,151.0,51.875277777777775,25.72694444444444
249,Станькова,ivan_frank,vilage,1158.0,1266.0,49.15277777777778,24.30138888888889
250,Котира,rivne,vilage,1158.0,112.0,51.849444444444444,25.75777777777778
251,Нобель (Вараський район),rivne,vilage,1158.0,325.0,51.86805555555556,25.761666666666667
252,Снятин,,city,1158.0,9844.0,48.45111111111111,25.57111111111111
253,Барахти,kyiv,vilage,1159.0,1235.0,50.11083333333333,30.37361111111111
254,Погреби (Васильківський район),kyiv,vilage,1159.0,422.0,50.13722222222222,30.411944444444444
255,Боярка,,city,1159.0,35376.0,50.32888888888889,30.295555555555556
256,Жидачів,,city,1164.0,10962.0,49.385,24.144444444444446
257,Пліщин (Шепетівський район),xmelnitsk,vilage,1167.0,1201.0,50.16888888888889,26.967777777777776
258,Виповзів,chernihiv,vilage,1168.0,326.0,50.93527777777778,30.790555555555557
259,Гатне,kyiv,vilage,1169.0,3087.0,50.35416666666667,30.375
260,Мошняги,odesa,vilage,1176.0,251.0,47.94499999999999,29.504722222222224
261,Угерсько,lviv,vilage,1176.0,1683.0,49.30083333333333,23.90861111111111
262,Лукім'я,poltava,vilage,1178.0,628.0,49.81944444444445,32.89055555555556
263,Рогатин,,city,1184.0,7925.0,49.416666666666664,24.616666666666667
264,Борисковичі,Volins,vilage,1184.0,467.0,50.42166666666667,24.7825
265,Дерганівка,zitomer,vilage,1185.0,799.0,49.69222222222222,29.063333333333333
266,Велика Бурімка,cherkasy,vilage,1185.0,1850.0,49.60888888888889,32.63805555555555
267,Дубаневичі,lviv,vilage,1187.0,1289.0,49.69638888888888,23.50777777777778
268,Пійло,ivan_frank,vilage,1187.0,2150.0,49.00277777777778,24.303611111111113
269,Жадківка,rivne,vilage,1188.0,833.0,50.599722222222226,27.149722222222223
270,Пашківці (Старокостянтинівський район),xmelnitsk,vilage,1189.0,1323.0,49.76861111111111,27.131944444444446
271,Шарки (Білоцерківський район),kyiv,vilage,1190.0,704.0,49.713055555555556,30.62361111111111
272,Лядова (Могилів-Подільський район),Vinitsa,vilage,1190.0,805.0,48.49611111111111,27.614444444444445
273,Деренковець,cherkasy,vilage,1192.0,1780.0,49.418055555555554,31.466666666666665
274,Чорнобиль,,city,1193.0,1054.0,51.266666666666666,30.216666666666665
275,Городище (Хмельницький район),xmelnitsk,vilage,1194.0,465.0,49.26138888888889,27.652777777777775
276,Городенка,,city,1195.0,9277.0,48.6675,25.50027777777778
277,Стара Басань,chernihiv,vilage,1196.0,683.0,50.64472222222222,31.490555555555556
278,Щербанівка,kyiv,vilage,1196.0,243.0,50.09777777777778,30.73611111111111
279,Сигнаївка,cherkasy,vilage,1197.0,1990.0,49.051944444444445,31.495
280,Ярославка (Ніжинський район),chernihiv,vilage,1198.0,676.0,50.66027777777778,31.303611111111113
281,Спас (Львівський район),lviv,vilage,1198.0,276.0,50.04694444444444,24.478888888888886
282,Старий Самбір,,city,1199.0,6597.0,49.43333333333333,23.0
283,П'ятківка,Vinitsa,vilage,1200.0,1841.0,48.31888888888889,29.383333333333333
284,Піщане (Черкаська область),cherkasy,vilage,1200.0,3827.0,49.74638888888889,31.844444444444445
285,Княгининок,Volins,vilage,1200.0,2168.0,50.79694444444444,25.267777777777777
286,Старі Бабани,cherkasy,vilage,1200.0,1605.0,48.852222222222224,30.350833333333334
287,Чернівці,,city,1200.0,265515.0,48.29083333333333,25.934444444444445
288,Чулатів (Новгород-Сіверський район),chernihiv,vilage,1200.0,137.0,51.96888888888889,33.344722222222224
289,Костобобрів,chernihiv,vilage,1200.0,820.0,52.23972222222222,32.93722222222222
290,Свалява,,city,1200.0,17181.0,48.54722222222222,22.98638888888889
291,Березівка (Березівська сільська громада),zitomer,vilage,1200.0,1967.0,50.31222222222222,28.43138888888889
292,Леляки (Баришівський район),kyiv,vilage,1200.0,468.0,50.237500000000004,31.540277777777778
293,Бобриця (Фастівський район),kyiv,vilage,1200.0,29.0,50.28,30.22722222222222
294,Самостріли,rivne,vilage,1200.0,504.0,50.60611111111111,26.91861111111111
295,Ялта,,city,1200.0,78200.0,44.49888888888889,34.16972222222222
296,Скочище (село),zitomer,vilage,1200.0,373.0,50.108333333333334,29.33611111111111
297,Виграїв,cherkasy,vilage,1200.0,614.0,49.455555555555556,31.140277777777776
298,Кам'янець-Подільський,,city,1200.0,97970.0,48.68055555555555,26.580555555555556
299,Дорогинка (Прилуцький район),chernihiv,vilage,1200.0,1083.0,50.93694444444444,32.12777777777778
300,Дробишів,chernihiv,vilage,1200.0,191.0,51.948611111111106,33.33722222222222
301,Семки (Луцький район),Volins,vilage,1200.0,152.0,51.12138888888889,25.736666666666668
302,Грищинці,cherkasy,vilage,1200.0,652.0,49.80166666666666,31.352222222222224
303,Убині,lviv,vilage,1200.0,354.0,49.92583333333333,24.427500000000002
304,Дорогинка (Фастівський район),kyiv,vilage,1200.0,748.0,50.17361111111111,29.911388888888887
305,Четвертня,Volins,vilage,1200.0,1311.0,51.04472222222222,25.475277777777777
306,Карашина (Україна),cherkasy,vilage,1200.0,616.0,49.403055555555554,31.30777777777778
307,Стара Носовиця,rivne,vilage,1200.0,385.0,50.28972222222222,25.669722222222223
308,Бровари,,city,1200.0,,50.51138888888889,30.790277777777778
309,Ратищі,ternopil,vilage,1200.0,311.0,49.83527777777778,25.308611111111112
310,Камінь-Каширський,,city,1200.0,12505.0,51.62,24.96527777777778
311,Перехрестя (село),zakarpat,vilage,1200.0,927.0,48.13722222222222,22.836944444444445
312,Мар'янівка (Білоцерківський район),kyiv,vilage,1201.0,1017.0,50.06638888888889,30.169444444444444
313,Духове,poltava,vilage,1204.0,346.0,50.14944444444444,32.73833333333334
314,Глибочок (Кам'янець-Подільський район),xmelnitsk,vilage,1208.0,542.0,48.858333333333334,27.165555555555553
315,Полупанівка,ternopil,vilage,1209.0,1008.0,49.47833333333333,25.970555555555553
316,Рокитне (Яворівський район),lviv,vilage,1210.0,266.0,49.94416666666666,23.908055555555553
317,Старий Збараж,ternopil,vilage,1211.0,782.0,49.650277777777774,25.749444444444446
318,Бібрка,,city,1211.0,3817.0,49.63583333333333,24.29361111111111
319,Збараж,,city,1211.0,10000.0,49.671388888888885,25.770833333333332
320,Соболівка (Брусилівська селищна громада),zitomer,vilage,1212.0,358.0,50.13638888888889,29.41916666666667
321,Онут,chernivtsi,vilage,1213.0,624.0,48.56722222222223,26.05
322,Тлумач,,city,1213.0,6000.0,48.85277777777778,24.995555555555555
323,Великі Береги,zakarpat,vilage,1214.0,2766.0,48.231388888888894,22.75027777777778
324,Ботар,zakarpat,vilage,1216.0,924.0,48.02638888888889,22.970277777777778
325,Березне (Шепетівський район),xmelnitsk,vilage,1220.0,166.0,50.09666666666667,27.175555555555558
326,Сульжин,xmelnitsk,vilage,1220.0,257.0,49.972500000000004,27.03888888888889
327,Гнилички,ternopil,vilage,1221.0,404.0,49.665,26.098055555555554
328,Тязів,ivan_frank,vilage,1222.0,1234.0,49.01638888888889,24.700555555555553
329,Галиця (Ніжинський район),chernihiv,vilage,1223.0,1817.0,50.75111111111111,32.02472222222222
330,Сокіл (Луцький район),Volins,vilage,1224.0,797.0,51.04666666666667,25.339166666666664
331,Серединці (Шепетівський район),xmelnitsk,vilage,1225.0,682.0,50.09666666666667,27.135555555555555
332,Вишневе (Шепетівський район),xmelnitsk,vilage,1225.0,576.0,49.976111111111116,27.06416666666667
333,Кременець,,city,1227.0,20752.0,50.10805555555556,25.7275
334,Жидичин,Volins,vilage,1227.0,1396.0,50.80472222222222,25.32
335,Чеснівський Раковець,ternopil,vilage,1227.0,284.0,49.83111111111111,25.67138888888889
336,Лінчин,rivne,vilage,1229.0,726.0,51.105555555555554,26.955277777777777
337,Рованці,Volins,vilage,1230.0,1188.0,50.73083333333334,25.348333333333333
338,Василів (Заставнівський район),chernivtsi,vilage,1230.0,1229.0,48.60416666666667,25.841666666666665
339,Судова Вишня,,city,1230.0,6566.0,49.9925,23.616388888888892
340,Сосни,Vinitsa,vilage,1230.0,976.0,49.359722222222224,28.073055555555555
341,Рожична (Шепетівський район),xmelnitsk,vilage,1230.0,179.0,50.05166666666666,27.199722222222224
342,Білівці (Дністровський район),chernivtsi,vilage,1234.0,1114.0,48.348333333333336,26.483333333333334
343,Володимирівка (Володимир-Волинський район),Volins,vilage,1235.0,267.0,50.82805555555556,24.395833333333332
344,Дибинці,kyiv,vilage,1239.0,1154.0,49.52472222222222,30.778333333333332
345,Бородані,kyiv,vilage,1239.0,249.0,49.54833333333333,30.741944444444446
346,Чепиліївка,kyiv,vilage,1240.0,780.0,49.756388888888885,30.322777777777777
347,Носівці (Тернопільський район),ternopil,vilage,1240.0,136.0,49.728611111111114,25.385833333333334
348,Горохів,,city,1240.0,9146.0,50.49944444444444,24.765
349,Домажир,lviv,vilage,1240.0,711.0,49.89,23.840277777777775
350,Прибитки,zitomer,vilage,1240.0,610.0,51.28722222222222,28.441388888888888
351,Устянівка,xmelnitsk,vilage,1240.0,131.0,50.038333333333334,27.21388888888889
352,Курне (село),zitomer,vilage,1240.0,985.0,50.45805555555556,28.09583333333333
353,Паланки,lviv,vilage,1240.0,278.0,49.85527777777778,23.885555555555555
354,Дивин (Україна),zitomer,vilage,1240.0,324.0,50.20194444444445,29.613055555555558
355,Гірськ,chernihiv,vilage,1240.0,585.0,52.021388888888886,31.850555555555555
356,Товпижин,rivne,vilage,1240.0,319.0,50.44166666666666,25.20777777777778
357,Великі Дмитровичі,kyiv,vilage,1240.0,881.0,50.19972222222222,30.55138888888889
358,Очитків,Vinitsa,vilage,1240.0,588.0,49.30555555555555,29.229999999999997
359,Сухоліси,kyiv,vilage,1240.0,1150.0,49.738055555555555,30.35777777777778
360,Стрибіж,zitomer,vilage,1240.0,622.0,50.396388888888886,28.15861111111111
361,Верхній Майдан,ivan_frank,vilage,1240.0,1504.0,48.61416666666667,24.664166666666667
362,Карачинів,lviv,vilage,1240.0,515.0,49.86972222222222,23.835555555555555
363,Кирдани (Таращанський район),kyiv,vilage,1240.0,753.0,49.5825,30.560833333333335
364,Вороців,lviv,vilage,1240.0,1228.0,49.85722222222223,23.817777777777778
365,Солуки,lviv,vilage,1240.0,124.0,49.87083333333334,23.85888888888889
366,Коломия,,city,1240.0,61140.0,48.541666666666664,25.038611111111113
367,Городище (Корецький район),rivne,vilage,1240.0,397.0,50.62111111111111,26.87472222222222
368,Малі Дмитровичі,kyiv,vilage,1240.0,164.0,50.206944444444446,30.521666666666665
369,Лохово,zakarpat,vilage,1241.0,1186.0,48.50472222222222,22.677500000000002
370,Зарайське,lviv,vilage,1241.0,216.0,49.61694444444444,23.290277777777778
371,Мальчиці,lviv,vilage,1241.0,1098.0,49.85527777777778,23.77777777777778
372,Зборів,,city,1241.0,6691.0,49.66166666666666,25.14527777777778
373,Самбір,,city,1241.0,34823.0,49.516666666666666,23.2
374,Колодяжне (Житомирський район),zitomer,vilage,1241.0,637.0,50.071111111111115,27.699444444444445
375,Куліші (Новоград-Волинський район),zitomer,vilage,1241.0,1137.0,50.796388888888885,27.834722222222222
376,Верхня Стинава,lviv,vilage,1241.0,1012.0,49.16027777777778,23.613611111111112
377,Неслухів,lviv,vilage,1241.0,1081.0,49.96138888888889,24.433611111111112
378,Пикуловичі,lviv,vilage,1242.0,1624.0,49.86666666666667,24.239166666666666
379,Заріччя (Хустський район),zakarpat,vilage,1242.0,3939.0,48.279444444444444,22.990833333333335
380,Губин (Хмельницький район),xmelnitsk,vilage,1242.0,301.0,49.77861111111111,27.443333333333335
381,Ямельниця,lviv,vilage,1242.0,547.0,49.1725,23.481388888888887
382,Грабівниця,lviv,vilage,1242.0,330.0,49.61805555555556,22.819166666666668
383,Онитківці,Vinitsa,vilage,1242.0,185.0,48.94138888888889,28.535833333333336
384,Уяринці,Vinitsa,vilage,1242.0,544.0,48.863055555555555,28.489444444444445
385,Берегуйфалу,zakarpat,vilage,1242.0,1926.0,48.276666666666664,22.80777777777778
386,Бабче,ivan_frank,vilage,1242.0,2484.0,48.666666666666664,24.441666666666666
387,Пилява (Тиврівський район),Vinitsa,vilage,1243.0,752.0,49.07138888888889,28.51833333333333
388,Старі Санжари,poltava,vilage,1243.0,1283.0,49.42833333333333,34.447222222222216
389,Данилівка (Васильківський район),kyiv,vilage,1243.0,3600.0,50.25333333333333,30.217499999999998
390,Мостиська,,city,1244.0,9331.0,49.79194444444444,23.1525
391,Мельниця (Ковельський район),Volins,vilage,1245.0,573.0,51.15138888888889,25.102222222222224
392,Кутрів,Volins,vilage,1245.0,553.0,50.34583333333334,25.085277777777776
393,Білки (Хустський район),zakarpat,vilage,1245.0,8561.0,48.32944444444445,23.139722222222222
394,Перекоси,ivan_frank,vilage,1246.0,772.0,49.16277777777778,24.392777777777777
395,Зняцьово,zakarpat,vilage,1248.0,1707.0,48.483333333333334,22.514722222222222
396,Криниця (Стрийський район),lviv,vilage,1250.0,1082.0,49.42944444444444,23.831666666666667
397,Бовсуни,zitomer,vilage,1250.0,974.0,51.07777777777778,28.456944444444442
398,Рубань,Vinitsa,vilage,1250.0,709.0,49.01111111111111,28.969166666666666
399,Велика Добронь,zakarpat,vilage,1250.0,5607.0,48.418055555555554,22.39
400,Луб'янка (Білоцерківський район),kyiv,vilage,1250.0,288.0,49.6975,30.727777777777778
401,Побірка,Vinitsa,vilage,1250.0,677.0,48.58166666666667,29.443333333333335
402,Вербовець (Берегівський район),zakarpat,vilage,1251.0,1206.0,48.168055555555554,22.90888888888889
403,Дротинці,zakarpat,vilage,1251.0,2000.0,48.105000000000004,22.986944444444447
404,Чорний Потік (Берегівський район),zakarpat,vilage,1251.0,1074.0,48.18083333333333,22.906666666666666
405,Камінне (Надвірнянський район),ivan_frank,vilage,1251.0,1117.0,48.761944444444445,24.71388888888889
406,Шом (Україна),zakarpat,vilage,1251.0,1091.0,48.28805555555555,22.438055555555557
407,Торгановичі,lviv,vilage,1254.0,578.0,49.47083333333334,23.06138888888889
408,Морозовичі (Самбірський район),lviv,vilage,1254.0,300.0,49.48361111111111,23.095277777777778
409,Торчиновичі,lviv,vilage,1254.0,1048.0,49.47888888888889,23.08277777777778
410,Орлинці,xmelnitsk,vilage,1255.0,372.0,50.0375,27.255
411,Тарасівка (Кожанська селищна громада),kyiv,vilage,1255.0,28.0,49.88638888888889,29.858611111111113
412,Львів,,city,1256.0,717486.0,49.84166666666667,24.031388888888888
413,Нове Село (Вилоцька селищна громада),zakarpat,vilage,1256.0,2200.0,48.11805555555556,22.890277777777776
414,Новоград-Волинський,,city,1257.0,55492.0,50.583333333333336,27.633333333333333
415,Городок (Бердичівський район),zitomer,vilage,1257.0,560.0,49.60027777777778,29.195
416,Батиїв,lviv,vilage,1257.0,316.0,50.27833333333333,24.871944444444445
417,П'ятидні,Volins,vilage,1259.0,841.0,50.85305555555556,24.221944444444443
418,Житані,Volins,vilage,1259.0,257.0,50.790277777777774,24.40361111111111
419,Мар'янівка (Бердичівський район),zitomer,vilage,1260.0,161.0,49.655,29.06527777777778
420,Бучач,,city,1260.0,12443.0,49.06666666666667,25.383333333333333
421,Оросієво,zakarpat,vilage,1260.0,895.0,48.16277777777778,22.819166666666668
422,Риботин,chernihiv,vilage,1260.0,950.0,51.558611111111105,32.900277777777774
423,Тростянці,ternopil,vilage,1260.0,365.0,49.066944444444445,24.935
424,Четфалва,zakarpat,vilage,1260.0,755.0,48.126111111111115,22.79416666666667
425,Потелич,lviv,vilage,1262.0,2500.0,50.211111111111116,23.549722222222226
426,Торговиця (Млинівський район),rivne,vilage,1265.0,383.0,50.555277777777775,25.397222222222222
427,Кордонівка,zitomer,vilage,1267.0,48.0,49.66083333333333,29.09638888888889
428,Руда (Івано-Франківський район),ivan_frank,vilage,1268.0,697.0,49.46,24.578333333333333
429,Бене (Берегівський район),zakarpat,vilage,1269.0,1409.0,48.16638888888889,22.756944444444443
430,Гетен,zakarpat,vilage,1270.0,761.0,48.27611111111111,22.383333333333333
431,Гологори (село),lviv,vilage,1271.0,658.0,49.75194444444445,24.72138888888889
432,Деражне,rivne,vilage,1274.0,2105.0,50.86222222222222,26.049444444444447
433,Ганнівка (Сосницький район),chernihiv,vilage,1274.0,58.0,51.513888888888886,32.44
434,Мале Устя,chernihiv,vilage,1274.0,275.0,51.470555555555556,32.533055555555556
435,Тарасівка (Івано-Франківський район),ivan_frank,vilage,1275.0,324.0,48.846111111111114,25.045833333333334
436,Судче,Volins,vilage,1278.0,1105.0,51.73416666666667,25.583333333333332
437,Бистриця (Мукачівський район),zakarpat,vilage,1278.0,1086.0,48.469166666666666,22.833055555555557
438,Бадалово,zakarpat,vilage,1280.0,1714.0,48.109722222222224,22.635833333333334
439,Лісниче,Vinitsa,vilage,1280.0,1410.0,48.26555555555556,29.58
440,Біласовиця,zakarpat,vilage,1280.0,516.0,48.834722222222226,23.04416666666667
441,Човгузів,xmelnitsk,vilage,1281.0,716.0,49.91444444444444,26.374444444444446
442,Чоп,,city,1281.0,8997.0,48.43083333333333,22.211944444444445
443,Свобода (Берегівський район),zakarpat,vilage,1282.0,854.0,48.35916666666667,22.37
444,Рівне,,city,1283.0,,50.61972222222222,26.25138888888889
445,Олешник,zakarpat,vilage,1284.0,5870.0,48.166666666666664,22.96
446,Садів,Volins,vilage,1284.0,827.0,50.6875,24.90361111111111
447,Кульчиці,lviv,vilage,1284.0,1639.0,49.505,23.279166666666665
448,Невицьке,zakarpat,vilage,1285.0,1032.0,48.67583333333333,22.3925
449,Яревище,Volins,vilage,1287.0,620.0,51.55305555555555,24.213055555555556
450,Березовичі,Volins,vilage,1287.0,670.0,50.797777777777775,24.58138888888889
451,Любомль,,city,1287.0,10474.0,51.22361111111111,24.032777777777778
452,Довге-Калуське,ivan_frank,vilage,1287.0,871.0,48.988055555555555,24.299444444444447
453,Бужковичі,Volins,vilage,1287.0,231.0,50.71611111111111,24.43777777777778
454,Вороблячин,lviv,vilage,1288.0,601.0,50.129444444444445,23.46388888888889
455,Сомин,Volins,vilage,1288.0,252.0,51.19694444444444,24.335555555555555
456,Федорівка (Володимир-Волинський район),Volins,vilage,1289.0,569.0,50.85333333333333,24.274444444444445
457,Новосілка (Скалатська міська громада),ternopil,vilage,1289.0,1514.0,49.445277777777775,26.00027777777778
458,Сасово (Берегівський район),zakarpat,vilage,1290.0,2281.0,48.09444444444445,23.075555555555557
459,Нова Дофінівка,odesa,vilage,1290.0,1344.0,46.580555555555556,30.90611111111111
460,Лаврів (Самбірський район),lviv,vilage,1291.0,461.0,49.38972222222222,22.872222222222224
461,Немовичі (село),rivne,vilage,1293.0,4.0,51.19916666666666,26.572222222222223
462,Болеславчик,mykolayiv,vilage,1294.0,613.0,48.08555555555556,30.785833333333336
463,Горностайпіль,kyiv,vilage,1294.0,1033.0,51.07083333333334,30.252222222222223
464,Станіславчик (Первомайський район),mykolayiv,vilage,1294.0,632.0,48.14694444444444,30.799722222222226
465,Спас (Самбірський район),lviv,vilage,1295.0,493.0,49.39361111111111,22.967777777777776
466,Підвиноградів,zakarpat,vilage,1295.0,4388.0,48.13722222222222,23.00138888888889
467,Старий Скалат,ternopil,vilage,1295.0,1081.0,49.46388888888889,25.98222222222222
468,Соловичі,Volins,vilage,1299.0,589.0,51.06333333333333,24.470555555555553
469,Жнятино,zakarpat,vilage,1300.0,2243.0,48.35055555555556,22.59583333333333
470,Козаки (Червоноградський район),lviv,vilage,1300.0,42.0,50.20111111111111,24.36138888888889
471,Черна,zakarpat,vilage,1300.0,2226.0,48.136944444444445,23.191111111111113
472,Дернівка (Баришівський район),kyiv,vilage,1300.0,480.0,50.36416666666667,31.37
473,Кошаковські,lviv,vilage,1300.0,106.0,50.19583333333333,24.35888888888889
474,Підгайне (Вишгородський район),kyiv,vilage,1300.0,349.0,50.843333333333334,29.661666666666665
475,Великі Лази,zakarpat,vilage,1300.0,1426.0,48.55972222222222,22.390277777777776
476,Маїки,lviv,vilage,1300.0,29.0,50.20722222222223,24.375833333333333
477,Верхній Коропець,zakarpat,vilage,1300.0,1362.0,48.43277777777777,22.784722222222225
478,Звиняче (село),Volins,vilage,1300.0,1165.0,50.49777777777778,24.90138888888889
479,Майдан-Гологірський,lviv,vilage,1300.0,348.0,49.76888888888889,24.783055555555556
480,Долини (Стародобротвірська сільська рада),lviv,vilage,1300.0,152.0,50.21555555555556,24.35388888888889
481,Білогірськ,,city,1300.0,18252.0,45.05722222222222,34.6
482,Миргород,,city,1300.0,38630.0,49.965833333333336,33.61138888888889
483,Затурці,Volins,vilage,1300.0,1917.0,50.78055555555555,24.83722222222222
484,Стріхівці,xmelnitsk,vilage,1300.0,744.0,49.04138888888889,26.944166666666668
485,Строїнці (Тиврівський район),Vinitsa,vilage,1300.0,1831.0,48.905833333333334,28.304166666666667
486,Боровиця (Черкаський район),cherkasy,vilage,1300.0,1745.0,49.24333333333333,32.48888888888889
487,Малі Селменці,zakarpat,vilage,1300.0,200.0,48.51361111111111,22.16111111111111
488,Лисогірка (Жмеринський район),Vinitsa,vilage,1300.0,457.0,49.2325,27.982777777777777
489,Борщів (Баришівський район),kyiv,vilage,1300.0,528.0,50.295833333333334,31.37027777777778
490,Бобовище,zakarpat,vilage,1300.0,1612.0,48.52777777777778,22.670555555555556
491,Тетірка,zitomer,vilage,1300.0,593.0,50.46472222222223,27.99138888888889
492,Либохора (Стрийський район),lviv,vilage,1300.0,918.0,48.89611111111111,23.512777777777778
493,Воробіївка (Білогірський район),xmelnitsk,vilage,1300.0,450.0,49.94194444444444,26.247777777777777
494,Липовий Скиток,kyiv,vilage,1300.0,266.0,50.27638888888889,30.204444444444444
495,Паладь-Комарівці,zakarpat,vilage,1300.0,834.0,48.52444444444444,22.175555555555558
496,Фанчиково,zakarpat,vilage,1300.0,2059.0,48.11388888888889,22.94361111111111
497,Ковтунівка (Ніжинський район),chernihiv,vilage,1300.0,0.0,50.717222222222226,31.982777777777777
498,Ілавче,ternopil,vilage,1300.0,1575.0,49.35305555555556,25.835277777777776
499,Городок (Львівська область),,city,1300.0,16257.0,49.78472222222222,23.679722222222225
500,Синявка (Менський район),chernihiv,vilage,1300.0,1131.0,51.61277777777778,32.015277777777776
501,Нижній Коропець,zakarpat,vilage,1300.0,927.0,48.361111111111114,22.66611111111111
502,Матяші (Червоноградський район),lviv,vilage,1300.0,69.0,50.206944444444446,24.36388888888889
503,Скорячий Яр,,Urban_Vilige,1300.0,37.0,48.47138888888889,28.081666666666667
504,Кізлів,lviv,vilage,1300.0,667.0,49.95861111111111,24.52861111111111
505,Рогалі,lviv,vilage,1300.0,120.0,50.19361111111111,24.373055555555556
506,Макарівка (Ніжинський район),chernihiv,vilage,1300.0,536.0,50.756388888888885,31.328055555555554
507,Угринів (Івано-Франківський район),ivan_frank,vilage,1300.0,3395.0,48.96888888888889,24.66583333333333
508,Чепа (Берегівський район),zakarpat,vilage,1300.0,1943.0,48.06916666666667,23.01833333333333
509,Черневе (Мостиський район),lviv,vilage,1300.0,1091.0,49.84722222222222,23.092499999999998
510,Кодня,zitomer,vilage,1301.0,2127.0,50.08722222222222,28.694444444444446
511,Нове Місто (Самбірський район),lviv,vilage,1301.0,878.0,49.6175,22.84472222222222
512,Олійники (Хмельницький район),xmelnitsk,vilage,1310.0,337.0,49.805,26.5675
513,Храпачі,kyiv,vilage,1311.0,467.0,49.86972222222222,30.23222222222222
514,Руденко (село),lviv,vilage,1311.0,406.0,50.27388888888889,24.821944444444444
515,Скребиші,kyiv,vilage,1311.0,550.0,49.86694444444444,30.25611111111111
516,Купчинці (Тернопільський район),ternopil,vilage,1312.0,1302.0,49.44833333333333,25.355833333333333
517,Князівське,ivan_frank,vilage,1312.0,875.0,48.86388888888889,24.143333333333334
518,Мервин,Vinitsa,vilage,1314.0,490.0,49.19694444444444,29.351944444444445
519,Вовкове (Ужгородський район),zakarpat,vilage,1314.0,509.0,48.5225,22.470277777777778
520,Рудка-Козинська,Volins,vilage,1315.0,752.0,50.93833333333333,25.162499999999998
521,Франкопіль,rivne,vilage,1315.0,183.0,50.7625,27.244722222222222
522,Глібівка,kyiv,vilage,1315.0,984.0,50.80333333333333,30.360555555555557
523,Кушниця,zakarpat,vilage,1318.0,4706.0,48.45166666666667,23.258055555555554
524,Старий Косів,ivan_frank,vilage,1318.0,1706.0,48.322500000000005,25.130833333333335
525,Смодна,ivan_frank,vilage,1318.0,1852.0,48.31583333333333,25.148333333333333
526,Городниця (Чортківський район),ternopil,vilage,1318.0,1603.0,49.18194444444444,26.110000000000003
527,Чорнотисів,zakarpat,vilage,1319.0,2232.0,48.07833333333333,23.053611111111113
528,Геча,zakarpat,vilage,1319.0,1030.0,48.13972222222222,22.658055555555553
529,Мельники (Яворівський район),lviv,vilage,1320.0,140.0,49.89138888888889,23.170555555555556
530,Снітків,Vinitsa,vilage,1320.0,688.0,48.80972222222222,27.63277777777778
531,Микулинці (село),Vinitsa,vilage,1320.0,697.0,49.257777777777775,28.15583333333333
532,Батрадь,zakarpat,vilage,1320.0,1846.0,48.32277777777778,22.412499999999998
533,Лохвиця,,city,1320.0,11608.0,50.35777777777778,33.26583333333333
534,Кумейки,cherkasy,vilage,1320.0,863.0,49.53472222222222,31.526666666666667
535,Бунів,lviv,vilage,1320.0,795.0,49.88916666666667,23.26388888888889
536,Кустин (Червоноградський район),lviv,vilage,1320.0,515.0,50.26361111111111,24.860000000000003
537,Сприня,lviv,vilage,1320.0,416.0,49.376111111111115,23.142222222222223
538,Вари,zakarpat,vilage,1320.0,3147.0,48.125,22.710555555555555
539,Яноші,zakarpat,vilage,1321.0,2030.0,48.2525,22.63138888888889
540,Боржава (село),zakarpat,vilage,1321.0,1502.0,48.156388888888884,22.721666666666664
541,Котелеве,chernivtsi,vilage,1322.0,2991.0,48.28361111111111,26.35638888888889
542,Буща (Здолбунівський район),rivne,vilage,1322.0,982.0,50.315555555555555,26.241111111111113
543,Піддубці (Луцький район),Volins,vilage,1322.0,1037.0,50.76305555555555,25.51361111111111
544,Півче (Здолбунівський район),rivne,vilage,1322.0,374.0,50.35472222222222,26.1225
545,Будераж (Дубенський район),rivne,vilage,1322.0,255.0,50.358333333333334,25.49416666666667
546,Будераж (Здолбунівський район),rivne,vilage,1322.0,668.0,50.327222222222225,26.153055555555554
547,Балажер,zakarpat,vilage,1323.0,816.0,48.24638888888889,22.608611111111113
548,Савчиці,ternopil,vilage,1325.0,392.0,50.07972222222222,25.575
549,Залісся (Хмельницький район),xmelnitsk,vilage,1326.0,721.0,49.621944444444445,27.771944444444443
550,Тетильківці (Кременецький район),ternopil,vilage,1326.0,636.0,50.04805555555556,25.871944444444445
551,Тячів,,city,1329.0,8980.0,48.01611111111111,23.571944444444444
552,Верхні Ремети,zakarpat,vilage,1329.0,489.0,48.26694444444444,22.860555555555557
553,Нижні Ремети,zakarpat,vilage,1329.0,865.0,48.2575,22.82638888888889
554,Сюрте,zakarpat,vilage,1329.0,1898.0,48.50333333333333,22.231944444444444
555,Стільсько,lviv,vilage,1330.0,834.0,49.54194444444444,24.075
556,Торчин (Хмільницький район),Vinitsa,vilage,1330.0,324.0,49.69138888888889,27.924722222222222
557,Сулківка,Vinitsa,vilage,1330.0,352.0,49.69583333333333,27.864444444444445
558,Шаланки,zakarpat,vilage,1332.0,3.0,48.22777777777778,22.883888888888887
559,Соломоново,zakarpat,vilage,1332.0,1387.0,48.43055555555555,22.163888888888888
560,Кідьош,zakarpat,vilage,1332.0,895.0,48.21805555555556,22.6975
561,Свидниця,lviv,vilage,1332.0,517.0,49.99305555555556,23.192222222222224
562,Чорний Острів (село),lviv,vilage,1333.0,855.0,49.46138888888889,24.276944444444442
563,Косонь,zakarpat,vilage,1333.0,2338.0,48.255833333333335,22.455277777777777
564,Велика Бийгань,zakarpat,vilage,1333.0,1893.0,48.24805555555556,22.57472222222222
565,Ракошино,zakarpat,vilage,1333.0,,48.46416666666667,22.5975
566,Кавське,lviv,vilage,1334.0,1453.0,49.36027777777778,23.803333333333335
567,Мала Бийгань,zakarpat,vilage,1335.0,1300.0,48.27166666666667,22.578333333333333
568,Микулин (Шепетівський район),xmelnitsk,vilage,1335.0,879.0,49.986111111111114,27.28527777777778
569,Бедевля,zakarpat,vilage,1336.0,3971.0,48.00388888888889,23.664166666666667
570,Купновичі,lviv,vilage,1337.0,472.0,49.652499999999996,23.33
571,Великі Геївці,zakarpat,vilage,1338.0,1.0,48.50694444444444,22.33111111111111
572,Заліщики,,city,1340.0,9089.0,48.65,25.735
573,Заболотне (Хустський район),zakarpat,vilage,1340.0,797.0,48.242222222222225,23.114722222222223
574,Дуброва (Україна),lviv,vilage,1340.0,431.0,49.51722222222222,24.07611111111111
575,Кропивник (Вигодська селищна громада),ivan_frank,vilage,1341.0,1851.0,48.93444444444444,23.85
576,Іршава,,city,1341.0,9259.0,48.31722222222223,23.0375
577,Любині,lviv,vilage,1342.0,866.0,49.92166666666667,23.210277777777776
578,Заплатин,lviv,vilage,1342.0,425.0,49.29611111111111,23.823888888888888
579,Малі Геївці,zakarpat,vilage,1342.0,760.0,48.49916666666667,22.303333333333335
580,Косівка (Білоцерківський район),kyiv,vilage,1342.0,680.0,49.471111111111114,29.753055555555555
581,Зелене (Гримайлівська селищна громада),ternopil,vilage,1343.0,478.0,49.311388888888885,26.102777777777778
582,Верхівці (Чортківський район),ternopil,vilage,1344.0,470.0,49.26305555555555,25.952222222222222
583,Сухівці (Тернопільський район),ternopil,vilage,1345.0,572.0,49.661944444444444,26.046111111111113
584,Мерва,Volins,vilage,1345.0,260.0,50.346944444444446,25.066666666666666
585,Малі Загайці,ternopil,vilage,1345.0,279.0,50.00972222222222,26.042222222222225
586,Синьковичі,lviv,vilage,1345.0,602.0,50.244166666666665,23.71222222222222
587,Гукалівці,ternopil,vilage,1345.0,225.0,49.77388888888889,25.170555555555556
588,Тур'є,lviv,vilage,1345.0,1387.0,49.275277777777774,23.08888888888889
589,Великі Ком'яти,zakarpat,vilage,1345.0,6772.0,48.23861111111111,22.978888888888886
590,Великі Загайці,ternopil,vilage,1345.0,1258.0,49.99888888888889,26.0175
591,Харитонівка (Прилуцький район),chernihiv,vilage,1345.0,488.0,50.64083333333333,32.999722222222225
592,Карачківці,xmelnitsk,vilage,1346.0,231.0,48.907222222222224,26.537222222222223
593,Кузубатиця,lviv,vilage,1348.0,69.0,49.632777777777775,24.77027777777778
594,Іване-Золоте,ternopil,vilage,1349.0,900.0,48.72,25.634722222222223
595,Чайковичі,lviv,vilage,1349.0,1867.0,49.597500000000004,23.52111111111111
596,Колбаєвичі,lviv,vilage,1349.0,608.0,49.625,23.50111111111111
597,Паплинці,xmelnitsk,vilage,1350.0,927.0,49.64138888888889,27.694166666666668
598,Рокети,lviv,vilage,1350.0,259.0,50.223055555555554,24.348888888888887
599,Романівка (Бердичівський район),zitomer,vilage,1350.0,915.0,49.890277777777776,28.506666666666668
600,Білоки,lviv,vilage,1350.0,0.0,49.47777777777778,23.1325
601,Поляни (Березнівський район),rivne,vilage,1350.0,1478.0,51.05333333333333,26.651666666666664
602,Хлоп'яники,chernihiv,vilage,1350.0,719.0,51.74444444444445,32.71472222222223
603,Шура-Мітлинецька,Vinitsa,vilage,1350.0,423.0,48.87638888888889,29.33972222222222
604,Кам'яниця (Ужгородський район),zakarpat,vilage,1350.0,1886.0,48.69333333333333,22.40611111111111
605,Зашків (Золочівський район),lviv,vilage,1350.0,100.0,49.73583333333333,24.74638888888889
606,Дублинки,zitomer,vilage,1350.0,323.0,50.586111111111116,27.30888888888889
607,Загаття,zakarpat,vilage,1350.0,2578.0,48.39527777777778,22.952777777777776
608,Комарівка (Кременецький район),ternopil,vilage,1350.0,910.0,50.06777777777778,25.492222222222225
609,Васючин,ivan_frank,vilage,1351.0,817.0,49.353611111111114,24.466666666666665
610,Боржавське,zakarpat,vilage,1351.0,2909.0,48.25472222222222,23.035
611,Імстичово,zakarpat,vilage,1351.0,2729.0,48.29527777777778,23.196944444444444
612,Нижнє Болотне,zakarpat,vilage,1351.0,1278.0,48.26638888888889,23.095
613,Рогізно (Самбірський район),lviv,vilage,1352.0,605.0,49.62916666666667,23.06361111111111
614,Підберізці (Львівський район),lviv,vilage,1352.0,1153.0,49.806666666666665,24.218055555555555
615,Вирів,lviv,vilage,1352.0,279.0,49.98777777777778,24.360277777777778
616,Горпин,lviv,vilage,1352.0,584.0,50.00555555555555,24.36916666666667
617,Винники,,city,1352.0,21560.0,49.815555555555555,24.129722222222224
618,Давидів,lviv,vilage,1355.0,4557.0,49.744166666666665,24.138055555555557
619,Теково,zakarpat,vilage,1356.0,1543.0,48.12361111111111,23.099166666666665
620,Нагірне (Самбірський район),lviv,vilage,1356.0,1108.0,49.48166666666667,23.220555555555553
621,Дийда,zakarpat,vilage,1356.0,2013.0,48.21888888888889,22.574444444444445
622,Завій,ivan_frank,vilage,1356.0,2089.0,48.95194444444445,24.425555555555558
623,Дроговиж,lviv,vilage,1356.0,2103.0,49.52166666666667,23.944444444444446
624,Погірці,lviv,vilage,1357.0,1634.0,49.59666666666667,23.55888888888889
625,Порошково,zakarpat,vilage,1357.0,3821.0,48.66638888888889,22.75138888888889
626,Жовтанці,lviv,vilage,1358.0,4000.0,49.9925,24.238333333333333
627,Звертів,lviv,vilage,1358.0,441.0,49.987500000000004,24.173055555555557
628,Увисла,ternopil,vilage,1358.0,1278.0,49.17472222222222,25.961666666666666
629,Незвисько,ivan_frank,vilage,1358.0,800.0,48.76916666666666,25.255277777777778
630,Пнікут,lviv,vilage,1359.0,1101.0,49.706944444444446,23.139722222222222
631,Чумальово,zakarpat,vilage,1359.0,3041.0,48.18944444444444,23.54416666666667
632,Водяники,cherkasy,vilage,1359.0,771.0,49.12888888888889,30.77611111111111
633,Хлопчиці,lviv,vilage,1360.0,1413.0,49.60944444444445,23.41583333333333
634,Забрідь (Ужгородський район),zakarpat,vilage,1360.0,1250.0,48.92333333333333,22.461666666666666
635,Нічогівка (Козелецький район),chernihiv,vilage,1360.0,214.0,50.809999999999995,31.099722222222223
636,Угнів,,city,1360.0,974.0,50.36805555555556,23.747777777777777
637,Сулимів,lviv,vilage,1360.0,624.0,49.964444444444446,24.16611111111111
638,Спичинці,Vinitsa,vilage,1360.0,476.0,49.41083333333333,29.153888888888886
639,Грушатичі,lviv,vilage,1361.0,523.0,49.63777777777778,22.903333333333332
640,Никловичі,lviv,vilage,1361.0,616.0,49.73694444444445,23.4075
641,Хащувате,kirivigrad,vilage,1362.0,2260.0,48.30416666666667,29.944444444444446
642,Обухів,,city,1362.0,33610.0,50.13,30.656666666666666
643,Хмільник,,city,1362.0,27158.0,49.55694444444444,27.95722222222222
644,Сичівка (Уманський район),cherkasy,vilage,1362.0,810.0,48.80166666666666,29.84861111111111
645,Федорівка (Тиврівський район),Vinitsa,vilage,1362.0,146.0,49.059999999999995,28.613611111111112
646,Городок (Хмельницька область),,city,1362.0,15919.0,49.16694444444444,26.581666666666667
647,Пилявка,xmelnitsk,vilage,1363.0,585.0,49.57916666666667,27.394444444444446
648,Вінниця,,city,1363.0,369252.0,49.23722222222222,28.46722222222222
649,Велика Бакта,zakarpat,vilage,1363.0,1047.0,48.16083333333333,22.663888888888888
650,Красне (Млинівський район),rivne,vilage,1363.0,312.0,50.53666666666666,25.354722222222225
651,Старе Давидково,zakarpat,vilage,1364.0,782.0,48.45722222222223,22.638333333333332
652,Зимна Вода,lviv,vilage,1365.0,11500.0,49.82222222222222,23.902777777777775
653,Сорокошичі,chernihiv,vilage,1365.0,43.0,51.19305555555555,30.634722222222223
654,Грабівка (Калуський район),ivan_frank,vilage,1366.0,1305.0,48.900277777777774,24.386388888888888
655,Стрептів,lviv,vilage,1366.0,1065.0,50.02388888888889,24.446666666666665
656,Крукеничі,lviv,vilage,1366.0,994.0,49.68527777777778,23.153888888888886
657,Хлиплі,lviv,vilage,1366.0,115.0,49.67055555555555,23.19527777777778
658,Стоянці,lviv,vilage,1366.0,317.0,49.76277777777778,23.278333333333332
659,Ветли,Volins,vilage,1366.0,1826.0,51.89277777777778,25.156666666666666
660,Люб'язь,Volins,vilage,1366.0,1061.0,51.83638888888889,25.464444444444442
661,Уторопи,ivan_frank,vilage,1367.0,2218.0,48.38638888888889,24.983055555555556
662,Новиця (Калуський район),ivan_frank,vilage,1367.0,3733.0,48.96,24.33138888888889
663,Скварява,lviv,vilage,1368.0,1010.0,49.86833333333333,24.745833333333334
664,Обич,ternopil,vilage,1368.0,753.0,50.14138888888889,26.02583333333333
665,Урич,lviv,vilage,1369.0,305.0,49.18194444444444,23.405555555555555
666,Лановичі,lviv,vilage,1369.0,653.0,49.58527777777778,23.23638888888889
667,Руда-Краковецька,lviv,vilage,1369.0,623.0,49.97361111111111,23.190555555555555
668,Червоне (Золочівський район),lviv,vilage,1370.0,1738.0,49.80277777777778,24.765555555555554
669,Мильчиці,lviv,vilage,1370.0,294.0,49.72027777777778,23.455
670,Ушковичі,lviv,vilage,1370.0,555.0,49.64194444444444,24.546666666666667
671,Тарава,lviv,vilage,1370.0,54.0,49.56055555555555,23.208333333333332
672,Піски (Щирецька селищна громада),lviv,vilage,1370.0,633.0,49.63666666666666,23.907777777777778
673,Мар'янівка (Хмельницький район),xmelnitsk,vilage,1370.0,1790.0,49.49444444444445,26.764166666666668
674,Вовча Гора (Хмельницький район),xmelnitsk,vilage,1370.0,940.0,49.51416666666667,26.755
675,Ямельня,lviv,vilage,1370.0,449.0,49.882777777777775,23.799722222222226
676,Жуків (Золочівський район),lviv,vilage,1370.0,507.0,49.71333333333334,24.8
677,Родатичі,lviv,vilage,1370.0,1912.0,49.79888888888889,23.51861111111111
678,Побережне (Львівський район),lviv,vilage,1370.0,280.0,49.70805555555556,23.474166666666665
679,Братківці (Стрийський район),lviv,vilage,1370.0,1372.0,49.22027777777778,23.835833333333333
680,П'яновичі,lviv,vilage,1370.0,644.0,49.572500000000005,23.203888888888887
681,Дусанів,lviv,vilage,1370.0,690.0,49.532777777777774,24.611111111111114
682,Годовиця,lviv,vilage,1371.0,877.0,49.76416666666667,23.91916666666667
683,Прилбичі,lviv,vilage,1371.0,2363.0,49.884166666666665,23.465833333333332
684,Болехів,,city,1371.0,10623.0,49.066944444444445,23.85138888888889
685,Шутроминці,ternopil,vilage,1372.0,626.0,48.823888888888895,25.535555555555558
686,Стадники (Яворівський район),lviv,vilage,1372.0,188.0,49.926944444444445,23.536944444444448
687,Орелець,ivan_frank,vilage,1373.0,795.0,48.468611111111116,25.423333333333336
688,Крива (Тячівський район),zakarpat,vilage,1373.0,3524.0,48.02833333333333,23.71388888888889
689,Мишин,ivan_frank,vilage,1373.0,2846.0,48.45472222222222,24.991666666666667
690,Старий Гвіздець,ivan_frank,vilage,1373.0,1178.0,48.581388888888895,25.255
691,Балинці,ivan_frank,vilage,1373.0,1346.0,48.54972222222222,25.286944444444448
692,Брід (Хустський район),zakarpat,vilage,1373.0,2384.0,48.34638888888889,23.005
693,Хирів,,city,1374.0,4167.0,49.535555555555554,22.854444444444447
694,Гірне (Стрийський район),lviv,vilage,1374.0,1740.0,49.18055555555555,23.734166666666667
695,Сусідовичі,lviv,vilage,1374.0,1291.0,49.54861111111111,23.020555555555553
696,Добромиль,,city,1374.0,6300.0,49.57055555555556,22.789444444444445
697,Старява (Самбірський район),lviv,vilage,1374.0,1403.0,49.506388888888885,22.7625
698,Тернава (Самбірський район),lviv,vilage,1374.0,638.0,49.54833333333333,22.796944444444446
699,Гать (Берегівський район),zakarpat,vilage,1374.0,3122.0,48.32027777777778,22.639444444444443
700,Велика Сушиця,lviv,vilage,1374.0,1275.0,49.49611111111111,22.845
701,Скелівка (село),lviv,vilage,1374.0,1062.0,49.53527777777778,22.9625
702,Острівець (Коломийський район),ivan_frank,vilage,1374.0,649.0,48.64194444444444,25.295555555555556
703,Чаплі (Самбірський район),lviv,vilage,1374.0,748.0,49.52305555555555,23.028055555555554
704,Добряни (Стрийський район),lviv,vilage,1375.0,1822.0,49.2875,23.88722222222222
705,Бобулинці,ternopil,vilage,1375.0,560.0,49.16777777777777,25.35611111111111
706,Пістинь,ivan_frank,vilage,1375.0,4049.0,48.361666666666665,25.024444444444445
707,Микитинці (Косівський район),ivan_frank,vilage,1375.0,829.0,48.39555555555555,25.061944444444446
708,Хатки (Самбірський район),lviv,vilage,1375.0,24.0,49.52166666666667,23.245833333333334
709,Максимовичі (Самбірський район),lviv,vilage,1375.0,516.0,49.5625,23.179444444444446
710,Корналовичі,lviv,vilage,1375.0,1047.0,49.54055555555556,23.35777777777778
711,Поточани,ternopil,vilage,1375.0,299.0,49.58916666666667,24.861666666666668
712,Кінашів,ivan_frank,vilage,1375.0,1125.0,49.224444444444444,24.74277777777778
713,Лопушно (Україна),lviv,vilage,1375.0,148.0,49.37583333333333,23.22
714,Лукавиця,lviv,vilage,1375.0,228.0,49.3975,23.22861111111111
715,Бережани,,city,1375.0,18878.0,49.44638888888888,24.94361111111111
716,Стені,lviv,vilage,1375.0,136.0,49.915,23.57027777777778
717,Тросник,zakarpat,vilage,1376.0,2222.0,48.1,22.950277777777778
718,Миржіївка,xmelnitsk,vilage,1376.0,76.0,48.92722222222222,27.138333333333332
719,Віжомля,lviv,vilage,1376.0,1200.0,49.84638888888889,23.41888888888889
720,Мірча,zitomer,vilage,1376.0,337.0,50.644999999999996,29.284166666666668
721,Носівці (Гайсинський район),Vinitsa,vilage,1377.0,1046.0,48.876666666666665,29.252222222222223
722,Роздільне (Україна),lviv,vilage,1377.0,437.0,49.65972222222222,23.374166666666667
723,Кротошин (Львівський район),lviv,vilage,1377.0,1029.0,49.74666666666667,24.087777777777777
724,Малехів,lviv,vilage,1377.0,5000.0,49.88166666666667,24.075277777777778
725,Черніїв,ivan_frank,vilage,1377.0,3915.0,48.856944444444444,24.71722222222222
726,Мервичі,lviv,vilage,1377.0,1187.0,49.99333333333333,24.034444444444446
727,Маріямпіль,ivan_frank,vilage,1378.0,1015.0,49.038333333333334,24.852500000000003
728,Верхній Струтинь,ivan_frank,vilage,1378.0,1907.0,48.92444444444444,24.07361111111111
729,Доробратово,zakarpat,vilage,1378.0,2038.0,48.35111111111111,22.90583333333333
730,Бережниця (Калуський район),ivan_frank,vilage,1378.0,1011.0,48.96361111111111,24.38361111111111
731,Вербівці (Коломийський район),ivan_frank,vilage,1378.0,956.0,48.62555555555556,25.378055555555555
732,Старуня,ivan_frank,vilage,1378.0,1954.0,48.71055555555556,24.49138888888889
733,Добровляни (Івано-Франківський район),ivan_frank,vilage,1378.0,214.0,48.986666666666665,24.790277777777778
734,Петрилів,ivan_frank,vilage,1378.0,676.0,48.98166666666667,25.00111111111111
735,Драгомирчани,ivan_frank,vilage,1378.0,1627.0,48.890277777777776,24.638055555555557
736,Рогиня,ivan_frank,vilage,1378.0,473.0,48.64194444444444,25.33222222222222
737,Монастирчани,ivan_frank,vilage,1378.0,1548.0,48.714444444444446,24.45722222222222
738,Остапківці (Коломийський район),ivan_frank,vilage,1378.0,748.0,48.59055555555556,25.280555555555555
739,Мала Спринька,lviv,vilage,1378.0,23.0,49.3975,23.17388888888889
740,Лалово,zakarpat,vilage,1378.0,965.0,48.403888888888886,22.810277777777777
741,Угорники (Івано-Франківська міська рада),ivan_frank,vilage,1378.0,3500.0,48.920833333333334,24.76
742,Лісна Тарновиця,ivan_frank,vilage,1378.0,1675.0,48.680277777777775,24.622222222222224
743,Монастирець (Самбірський район),lviv,vilage,1378.0,646.0,49.388333333333335,23.194444444444446
744,Терновиця (Івано-Франківський район),ivan_frank,vilage,1378.0,366.0,48.79055555555556,24.940555555555555
745,Підлужжя (Івано-Франківський район),ivan_frank,vilage,1378.0,1748.0,48.94138888888889,24.77111111111111
746,Глиняни,,city,1379.0,3140.0,49.82472222222223,24.516111111111112
747,Рукомиш,ternopil,vilage,1379.0,427.0,49.099722222222226,25.38111111111111
748,Колінці,ivan_frank,vilage,1380.0,835.0,48.84638888888889,24.962777777777777
749,Галабор,zakarpat,vilage,1380.0,752.0,48.10111111111111,22.678055555555556
750,Дігтярка (селище),,Urban_Vilige,1380.0,23.0,48.74305555555556,27.58722222222222
751,Божа Воля,lviv,vilage,1380.0,94.0,50.01,23.211944444444445
752,Сидорів,ternopil,vilage,1380.0,1125.0,49.01277777777778,26.166944444444447
753,Пужники,ivan_frank,vilage,1380.0,833.0,48.765277777777776,25.059444444444445
754,Грушово,zakarpat,vilage,1380.0,8500.0,48.00694444444444,23.7625
755,Нижня Апша,zakarpat,vilage,1380.0,7227.0,47.9975,23.83833333333333
756,Солянуватка,lviv,vilage,1380.0,552.0,49.592222222222226,22.784444444444446
757,Верем'я,kyiv,vilage,1382.0,343.0,50.0425,30.810000000000002
758,Нижня Стинава,lviv,vilage,1382.0,1172.0,49.132777777777775,23.654722222222222
759,Подусів,lviv,vilage,1382.0,611.0,49.581388888888895,24.673333333333336
760,Лисичово,zakarpat,vilage,1383.0,3187.0,48.490833333333335,23.274166666666666
761,Довге (Хустський район),zakarpat,vilage,1383.0,6790.0,48.3675,23.286944444444448
762,Монастирець (Грабовецько-Дулібівська сільська громада),lviv,vilage,1384.0,411.0,49.211666666666666,23.714166666666667
763,Конюхів,lviv,vilage,1385.0,893.0,49.21222222222222,23.755
764,Вертеп (село),zakarpat,vilage,1385.0,465.0,48.225,23.13722222222222
765,Урмань,ternopil,vilage,1385.0,601.0,49.566944444444445,24.950833333333332
766,Стрий,,city,1385.0,59325.0,49.25,23.85
767,Бережниця (Стрийська міська громада),lviv,vilage,1385.0,642.0,49.20888888888889,23.912777777777777
768,Дунаїв (Львівський район),lviv,vilage,1386.0,683.0,49.61666666666667,24.82361111111111
769,Великі Передримихи,lviv,vilage,1386.0,239.0,50.01833333333333,24.094166666666666
770,Чолгині,lviv,vilage,1386.0,1001.0,49.900555555555556,23.460555555555555
771,Зарудці,lviv,vilage,1386.0,727.0,49.972500000000004,23.96472222222222
772,Вовчків (Вишгородський район),kyiv,vilage,1386.0,440.0,51.11083333333333,29.549166666666668
773,Синяківці,xmelnitsk,vilage,1386.0,314.0,48.93333333333333,27.022222222222222
774,Малі Передримихи,lviv,vilage,1386.0,143.0,50.05277777777778,24.095
775,Рулево,lviv,vilage,1386.0,266.0,49.905,23.423055555555557
776,Мужиловичі,lviv,vilage,1386.0,1021.0,49.86027777777778,23.49361111111111
777,Борислав,,city,1387.0,33186.0,49.28916666666667,23.41888888888889
778,Іза,zakarpat,vilage,1387.0,5237.0,48.21388888888889,23.328611111111112
779,Княжпіль (Самбірський район),lviv,vilage,1387.0,650.0,49.56805555555556,22.747500000000002
780,Сасанівка,xmelnitsk,vilage,1387.0,402.0,49.95527777777778,27.299166666666668
781,Сваричів,ivan_frank,vilage,1387.0,4050.0,48.96055555555556,24.18277777777778
782,Рогізно (Стрийський район),lviv,vilage,1387.0,703.0,49.364444444444445,24.199444444444445
783,Берлоги,ivan_frank,vilage,1387.0,1238.0,48.96416666666667,24.247500000000002
784,Запсонь,zakarpat,vilage,1388.0,1799.0,48.28,22.47
785,Пологи (Теплицький район),Vinitsa,vilage,1388.0,565.0,48.57805555555556,29.748611111111114
786,Криштофівка,,Urban_Vilige,1388.0,120.0,48.41555555555556,27.88222222222222
787,Бучая,xmelnitsk,vilage,1388.0,408.0,48.75694444444444,27.08277777777778
788,Попово (Берегівський район),zakarpat,vilage,1389.0,929.0,48.269444444444446,22.422222222222224
789,Угля,zakarpat,vilage,1389.0,3117.0,48.151944444444446,23.629722222222224
790,Боронява,zakarpat,vilage,1389.0,3511.0,48.1575,23.385277777777777
791,Тумир,ivan_frank,vilage,1389.0,781.0,49.08083333333334,24.884444444444444
792,Кучерівка (Львівський район),lviv,vilage,1389.0,98.0,49.653055555555554,24.772222222222222
793,Теребля (Тячівський район),zakarpat,vilage,1389.0,5100.0,48.11138888888889,23.593055555555555
794,Стеблівка (Хустський район),zakarpat,vilage,1389.0,2231.0,48.09055555555556,23.421666666666667
795,Підгайчики (Самбірський район),lviv,vilage,1389.0,2027.0,49.6475,23.5125
796,Вонігове,zakarpat,vilage,1389.0,2654.0,48.075,23.5275
797,Добростани,lviv,vilage,1389.0,1249.0,49.869166666666665,23.622777777777777
798,Сопів,ivan_frank,vilage,1389.0,2552.0,48.51888888888889,24.97583333333333
799,Супрунів,Vinitsa,vilage,1390.0,339.0,49.391666666666666,28.314444444444444
800,Паланики,lviv,vilage,1390.0,23.0,49.56777777777778,23.775555555555556
801,Сураж (село),ternopil,vilage,1390.0,1335.0,50.14666666666667,26.18305555555556
802,Новостав (Луцький район),Volins,vilage,1390.0,602.0,50.68111111111111,25.360833333333336
803,Прибилів,ivan_frank,vilage,1390.0,1053.0,48.77166666666667,24.997222222222224
804,Звенигородка,,city,1390.0,17138.0,49.083333333333336,30.966666666666665
805,Добрячин,lviv,vilage,1390.0,924.0,50.41694444444444,24.241666666666667
806,Загоряни,xmelnitsk,vilage,1390.0,70.0,48.74277777777778,27.09861111111111
807,Дидятичі,lviv,vilage,1390.0,347.0,49.726111111111116,23.343888888888888
808,Сквира,,city,1390.0,15889.0,49.733333333333334,29.683333333333334
809,Лісові,lviv,vilage,1390.0,42.0,49.724722222222226,24.715555555555554
810,Ваньовичі,lviv,vilage,1390.0,996.0,49.48916666666667,23.11416666666667
811,Фастів,,city,1390.0,45393.0,50.07472222222223,29.918055555555558
812,Чорнолізці,ivan_frank,vilage,1390.0,3097.0,48.83222222222223,24.9
813,Татаринів,lviv,vilage,1390.0,586.0,49.56888888888889,23.75111111111111
814,Довгий Войнилів,ivan_frank,vilage,1390.0,1405.0,49.155277777777776,24.37138888888889
815,Дубшари,ivan_frank,vilage,1390.0,153.0,48.84527777777778,24.098055555555554
816,Великополовецьке,kyiv,vilage,1390.0,2353.0,49.870555555555555,29.91916666666667
817,Руське (Закарпатська область),zakarpat,vilage,1391.0,916.0,48.472500000000004,22.61916666666667
818,Іллінці,,city,1391.0,11185.0,49.1,29.2
819,Голинь,ivan_frank,vilage,1391.0,5246.0,49.00805555555556,24.25611111111111
820,Гаї (Львівський район),lviv,vilage,1391.0,425.0,49.763888888888886,24.265833333333333
821,Воля Любинська,lviv,vilage,1391.0,470.0,49.905277777777776,23.21527777777778
822,Плисків,Vinitsa,vilage,1391.0,1439.0,49.369166666666665,29.284722222222225
823,Лісогірка (Хмельницький район),xmelnitsk,vilage,1392.0,850.0,49.12833333333333,26.558055555555555
824,Бобрик Перший,odesa,vilage,1392.0,3034.0,47.91972222222222,30.18722222222222
825,Присліп (Хустський район),zakarpat,vilage,1392.0,851.0,48.69277777777778,23.529444444444444
826,Копилів,kyiv,vilage,1392.0,1509.0,50.40694444444444,29.892222222222223
827,Кнісело,lviv,vilage,1392.0,334.0,49.51083333333333,24.366944444444446
828,Віднів,lviv,vilage,1392.0,462.0,49.96638888888889,24.145
829,Супрунківці,xmelnitsk,vilage,1392.0,500.0,48.74805555555556,26.76638888888889
830,Малі Підліски,lviv,vilage,1392.0,652.0,49.920833333333334,24.159444444444443
831,Саражинка,odesa,vilage,1392.0,1119.0,48.08777777777778,29.4475
832,Задарів,ternopil,vilage,1392.0,1154.0,49.059999999999995,25.04277777777778
833,Шендерів,Vinitsa,vilage,1393.0,280.0,49.05166666666666,28.64472222222222
834,Глібів (Кам'янець-Подільський район),xmelnitsk,vilage,1393.0,619.0,48.9175,27.155555555555555
835,Великосілки,lviv,vilage,1393.0,1444.0,49.99472222222222,24.424444444444447
836,Вівня (село),lviv,vilage,1394.0,686.0,49.333333333333336,23.886944444444445
837,Крупське (Стрийський район),lviv,vilage,1394.0,1494.0,49.46194444444445,24.029999999999998
838,Топільське,ivan_frank,vilage,1394.0,527.0,48.92583333333333,24.234722222222224
839,Ходорів,,city,1394.0,9605.0,49.405833333333334,24.310277777777777
840,Джурів,ivan_frank,vilage,1394.0,1809.0,48.39055555555556,25.305
841,Журів,ivan_frank,vilage,1394.0,472.0,49.30333333333333,24.444444444444446
842,Загвіздя,ivan_frank,vilage,1394.0,3978.0,48.9225,24.654722222222222
843,Подоляни (Хмельницький район),xmelnitsk,vilage,1394.0,215.0,49.621944444444445,27.740000000000002
844,Кобиловолоки,ternopil,vilage,1394.0,1592.0,49.189166666666665,25.780833333333334
845,Млиниська (Тернопільський район),ternopil,vilage,1394.0,438.0,49.192499999999995,25.749722222222225
846,Ганачівка,lviv,vilage,1394.0,466.0,49.71027777777778,24.421111111111113
847,Колоколин,ivan_frank,vilage,1394.0,682.0,49.30166666666666,24.479166666666664
848,Носів,ternopil,vilage,1395.0,692.0,49.23361111111111,25.009444444444444
849,Стрілковичі,lviv,vilage,1395.0,1208.0,49.499722222222225,23.133888888888887
850,Колодниця (Стрийський район),lviv,vilage,1395.0,368.0,49.23222222222223,23.735
851,Старий Вишнівець,ternopil,vilage,1395.0,1625.0,49.888333333333335,25.7525
852,Завалів,ternopil,vilage,1395.0,472.0,49.20638888888889,25.028055555555554
853,Гнильче (Тернопільський район),ternopil,vilage,1395.0,593.0,49.19222222222222,24.92777777777778
854,Лиса,ternopil,vilage,1395.0,363.0,49.242222222222225,25.01722222222222
855,Крушельниця,lviv,vilage,1395.0,1297.0,49.10444444444445,23.48611111111111
856,Новомалин,rivne,vilage,1396.0,677.0,50.29805555555556,26.366388888888892
857,Озеряни (Дубенський район),rivne,vilage,1396.0,673.0,50.46416666666667,26.060833333333335
858,Межиріч (Острозький район),rivne,vilage,1396.0,1490.0,50.301111111111105,26.474999999999998
859,Долішнє (Моршинська міська громада),lviv,vilage,1396.0,624.0,49.15277777777778,23.816111111111113
860,Ставчани (Львівський район),lviv,vilage,1396.0,1775.0,49.7575,23.839166666666664
861,Велика Городниця,rivne,vilage,1396.0,697.0,50.653888888888886,25.482499999999998
862,Ставки (Рівненський район),rivne,vilage,1396.0,500.0,50.65611111111111,26.140277777777776
863,Радошівка (Шепетівський район),xmelnitsk,vilage,1396.0,1679.0,50.181666666666665,26.884444444444444
864,Горішнє (Моршинська міська громада),lviv,vilage,1396.0,329.0,49.13527777777778,23.7925
865,Дяків,xmelnitsk,vilage,1396.0,470.0,50.458333333333336,27.030555555555555
866,Перв'ятичі,lviv,vilage,1397.0,,50.45916666666667,24.45722222222222
867,Перегноїв,lviv,vilage,1397.0,968.0,49.808055555555555,24.57472222222222
868,Витвиця (село),ivan_frank,vilage,1397.0,1255.0,48.99055555555556,23.843888888888888
869,Сокільники (Львівський район),lviv,vilage,1397.0,5727.0,49.776944444444446,23.961388888888887
870,Тухля (Україна),lviv,vilage,1397.0,2826.0,48.918055555555554,23.471944444444443
871,Підгородці,lviv,vilage,1397.0,3218.0,49.158055555555556,23.424166666666668
872,Вижняни,lviv,vilage,1397.0,333.0,49.80611111111111,24.415277777777778
873,Новосілки (Золочівська міська громада),lviv,vilage,1397.0,411.0,49.77861111111111,24.651666666666664
874,Підгайчики (Львівський район),lviv,vilage,1397.0,638.0,49.7525,24.487222222222222
875,Стара Скварява,lviv,vilage,1398.0,1.0,50.03861111111111,23.94472222222222
876,Дідилів,lviv,vilage,1398.0,1517.0,49.93333333333333,24.363333333333333
877,Джурків,ivan_frank,vilage,1398.0,1325.0,48.63333333333333,25.2
878,Мокротин,lviv,vilage,1398.0,812.0,50.01305555555555,23.898333333333333
879,Пищаче,ivan_frank,vilage,1398.0,220.0,48.61222222222222,25.18888888888889
880,Мацошин,lviv,vilage,1398.0,907.0,50.02472222222222,23.9925
881,Воля-Добростанська,lviv,vilage,1399.0,527.0,49.89222222222222,23.636944444444445
882,Зіболки,lviv,vilage,1399.0,1201.0,50.03444444444444,24.136666666666667
883,Качмарі (Яворівський район),lviv,vilage,1399.0,194.0,49.902499999999996,23.62388888888889
884,Перечин,,city,1399.0,6683.0,48.74027777777778,22.472777777777775
885,Ременів,lviv,vilage,1399.0,2953.0,49.953611111111115,24.206944444444442
886,Гребінці (Україна),lviv,vilage,1399.0,414.0,49.97694444444445,24.114722222222223
887,Тернів,lviv,vilage,1399.0,115.0,50.022777777777776,23.927222222222223
888,Кропивник (Калуський район),ivan_frank,vilage,1399.0,2239.0,49.033055555555556,24.263055555555557
889,Оболоння (Коропський район),chernihiv,vilage,1399.0,897.0,51.6275,32.941111111111105
890,Саранчуки,ternopil,vilage,1399.0,785.0,49.35166666666667,24.9875
891,Могиляни (Львівський район),lviv,vilage,1399.0,201.0,50.00333333333333,24.102500000000003
892,Верба (Коропський район),chernihiv,vilage,1399.0,1085.0,51.70055555555556,32.7925
893,Косів Верх,zakarpat,vilage,1400.0,16.0,48.445277777777775,23.622222222222224
894,Калуш,,city,1400.0,65814.0,49.04416666666666,24.359722222222224
895,Велика П'ятигірка,zitomer,vilage,1400.0,865.0,49.8675,28.479166666666664
896,Лісове (Чанизька сільська рада),lviv,vilage,1400.0,101.0,50.075,24.730555555555554
897,Нове Життя (Чернівецький район),Vinitsa,vilage,1400.0,135.0,48.375,28.1725
898,Білогородка (Шепетівський район),xmelnitsk,vilage,1400.0,1641.0,50.00416666666667,26.6475
899,Кальник (Мукачівський район),zakarpat,vilage,1400.0,872.0,48.51611111111111,22.598888888888887
900,Станово,zakarpat,vilage,1400.0,985.0,48.42027777777778,22.858055555555556
901,Черкаси,,city,1400.0,270926.0,49.44444444444444,32.05972222222222
902,Стригальня,zakarpat,vilage,1400.0,507.0,48.56861111111112,23.578055555555554
903,Лісове (Тур'янська сільська рада),lviv,vilage,1400.0,43.0,50.098333333333336,24.8375
904,Майорщина (Чернівецький район),Vinitsa,vilage,1400.0,72.0,48.45166666666667,28.118055555555557
905,Козляничі,chernihiv,vilage,1400.0,369.0,51.72527777777778,32.56805555555556
906,Сухий (Хустський район),zakarpat,vilage,1400.0,395.0,48.58222222222223,23.425555555555558
907,Васильків (Шполянський район),cherkasy,vilage,1400.0,2356.0,48.97888888888889,31.315555555555555
908,Велика Паладь,zakarpat,vilage,1400.0,1824.0,48.000277777777775,22.88222222222222
909,Ластівка (село),lviv,vilage,1400.0,802.0,49.22555555555556,23.189166666666665
910,"Губник (Гайсинський район, селище)",,Urban_Vilige,1400.0,203.0,48.621944444444445,29.361944444444447
911,Торчин (Старосілецька сільська громада),zitomer,vilage,1400.0,810.0,50.510555555555555,28.95861111111111
912,Великі Гуляки,kyiv,vilage,1400.0,577.0,50.16583333333333,29.698333333333334
913,Великий Кучурів,chernivtsi,vilage,1400.0,8058.0,48.214444444444446,25.90722222222222
914,Перемога (Баришівський район),kyiv,vilage,1400.0,1478.0,50.499722222222225,31.24638888888889
915,Зубра (село),lviv,vilage,1400.0,2491.0,49.76916666666666,24.046666666666667
916,Ілів,lviv,vilage,1400.0,271.0,49.528888888888886,24.12527777777778
917,Литвинець (село),cherkasy,vilage,1400.0,923.0,49.74388888888889,31.366944444444446
918,Турка (село),ivan_frank,vilage,1400.0,2568.0,48.59277777777778,25.139722222222222
919,Новоселиця (Мукачівський район),zakarpat,vilage,1400.0,267.0,48.40472222222222,22.855
920,Орадівка,cherkasy,vilage,1400.0,907.0,48.76277777777778,29.981666666666666
921,Йосипівка (Золочівський район),lviv,vilage,1400.0,376.0,49.96888888888889,24.86138888888889
922,Переорки,Vinitsa,vilage,1400.0,754.0,49.3125,28.40583333333333
923,Канафости,lviv,vilage,1400.0,296.0,49.67305555555555,23.389444444444443
924,Мала Копаня,zakarpat,vilage,1400.0,1380.0,48.169444444444444,23.09472222222222
925,Вежиця,rivne,vilage,1400.0,1105.0,51.565555555555555,27.096944444444443
926,Рекіти,zakarpat,vilage,1400.0,318.0,48.68444444444444,23.411666666666665
927,Малі Жеребки,xmelnitsk,vilage,1400.0,136.0,49.70611111111111,26.535
928,Шумляни,ternopil,vilage,1400.0,1196.0,49.28194444444444,24.878888888888888
929,Страхолісся,kyiv,vilage,1400.0,720.0,51.077222222222225,30.39388888888889
930,Поручин (Україна),ternopil,vilage,1400.0,407.0,49.5625,24.914166666666667
931,Саки (місто),,city,1400.0,23391.0,45.13333333333333,33.6
932,Семенівка (Шаргородський район),Vinitsa,vilage,1400.0,505.0,48.78972222222222,28.346944444444443
933,Великий Карабчіїв,xmelnitsk,vilage,1400.0,890.0,49.03,26.601666666666667
934,Іванівці (Мукачівський район),zakarpat,vilage,1400.0,1222.0,48.47166666666667,22.64527777777778
935,"Устя (Бершадський район, село)",Vinitsa,vilage,1400.0,2610.0,48.37777777777778,29.660555555555554
936,Ічня,,city,1400.0,10709.0,50.85,32.4
937,Павлово (Україна),zakarpat,vilage,1400.0,770.0,48.647777777777776,22.915
938,Холмець,zakarpat,vilage,1400.0,901.0,48.525,22.386666666666667
939,Баличі,lviv,vilage,1400.0,987.0,49.76611111111111,23.028888888888886
940,Старі Велідники,zitomer,vilage,1400.0,358.0,51.308611111111105,28.44388888888889
941,Лугова (Бершадський район),Vinitsa,vilage,1400.0,627.0,48.36527777777778,29.745555555555555
942,Пилипівка (Фастівський район),kyiv,vilage,1400.0,409.0,49.995555555555555,29.922777777777778
943,Лужок (Чернівецький район),Vinitsa,vilage,1400.0,417.0,48.57638888888889,28.108611111111113
944,Тисобикень,zakarpat,vilage,1400.0,2216.0,48.07222222222222,22.89611111111111
945,Кропивня (Новоборівська селищна громада),zitomer,vilage,1400.0,567.0,50.72555555555556,28.499444444444446
946,Медвин (Вишгородський район),kyiv,vilage,1400.0,29.0,51.08777777777778,30.336944444444445
947,Заньки (Ніжинський район),chernihiv,vilage,1400.0,272.0,51.19694444444444,31.983888888888888
948,Сторожинець,,city,1400.0,14248.0,48.15972222222222,25.715
949,Брахівка,lviv,vilage,1400.0,236.0,50.005833333333335,24.83833333333333
950,Язловець,ternopil,vilage,1400.0,617.0,48.959722222222226,25.442222222222224
951,Загайпіль,ivan_frank,vilage,1400.0,815.0,48.543055555555554,25.211388888888887
952,Радковиця,xmelnitsk,vilage,1400.0,473.0,49.25,26.428611111111113
953,Ріпнів,lviv,vilage,1400.0,1044.0,49.9825,24.499166666666667
954,Великі Лучки,zakarpat,vilage,1400.0,9650.0,48.419999999999995,22.561111111111114
955,Острів (Золочівський район),lviv,vilage,1400.0,355.0,49.92833333333333,24.59583333333333
956,Дібрівка (Менський район),chernihiv,vilage,1400.0,58.0,51.425,32.12083333333334
957,Роснівка,lviv,vilage,1400.0,207.0,49.9375,23.25138888888889
958,Мала Деребчинка,Vinitsa,vilage,1400.0,262.0,48.72666666666667,28.299722222222226
959,Ладижин,,city,1400.0,23791.0,48.689722222222215,29.241666666666667
960,П'ятка,zitomer,vilage,1400.0,1200.0,50.02111111111111,28.365000000000002
961,Бачка (Золочівський район),lviv,vilage,1400.0,34.0,50.07333333333334,24.800833333333333
962,Зубівка (Мукачівський район),zakarpat,vilage,1400.0,401.0,48.385,22.838055555555556
963,Закомар'я,lviv,vilage,1400.0,275.0,49.94166666666666,24.76222222222222
964,Тисовець (Сторожинецький район),chernivtsi,vilage,1400.0,3556.0,48.16722222222222,25.899444444444445
965,Машеве,chernihiv,vilage,1400.0,868.0,52.08861111111111,32.80138888888889
966,Зміїнець,Volins,vilage,1400.0,1350.0,50.76444444444444,25.28611111111111
967,Саджавка (село),ivan_frank,vilage,1400.0,3438.0,48.56944444444445,24.793055555555558
968,Запереділля,zakarpat,vilage,1400.0,1043.0,48.474722222222226,23.504166666666666
969,Буринь,,city,1400.0,8787.0,51.19583333333333,33.82666666666667
970,Бар (Україна),,city,1401.0,15775.0,49.07805555555556,27.68305555555556
971,Зубрівка (село),xmelnitsk,vilage,1401.0,57.0,48.635,26.601111111111113
972,Гірки (Камінь-Каширський район),Volins,vilage,1401.0,778.0,51.91833333333333,25.31527777777778
973,Шегині,lviv,vilage,1402.0,1170.0,49.79888888888889,22.972777777777775
974,Ганичі,zakarpat,vilage,1402.0,4986.0,48.125277777777775,23.801111111111112
975,Кормильча,xmelnitsk,vilage,1402.0,799.0,48.852222222222224,26.39638888888889
976,Голошинці,ternopil,vilage,1402.0,131.0,49.630833333333335,26.096944444444443
977,Нагірці,lviv,vilage,1403.0,270.0,50.01638888888889,24.10777777777778
978,Устя (Кам'янець-Подільський район),xmelnitsk,vilage,1403.0,529.0,48.57,26.64388888888889
979,Бабка (Вараський район),rivne,vilage,1403.0,288.0,51.385,25.892222222222223
980,Михайлівці (Мурованокуриловецький район),Vinitsa,vilage,1403.0,1270.0,48.87555555555556,27.52111111111111
981,Лопушне (Лопушненська сільська громада),ternopil,vilage,1403.0,743.0,49.91694444444444,25.46833333333333
982,Дунаївці,,city,1403.0,15914.0,48.88944444444444,26.856944444444444
983,Вільховець (Новоушицька селищна громада),xmelnitsk,vilage,1403.0,1265.0,48.698611111111106,27.3575
984,Велика Яромирка,xmelnitsk,vilage,1403.0,1069.0,49.11194444444445,26.509166666666665
985,Терново,zakarpat,vilage,1404.0,4302.0,48.06805555555556,23.73222222222222
986,Кліцько,lviv,vilage,1404.0,273.0,49.63111111111111,23.72722222222222
987,Зіньків (село),xmelnitsk,vilage,1404.0,1686.0,49.07694444444445,27.072222222222223
988,Красна (Тернопільський район),ternopil,vilage,1404.0,262.0,49.61194444444445,25.1675
989,Нова Сулківка,Vinitsa,vilage,1404.0,61.0,49.717777777777776,27.829166666666666
990,Пільний Мукарів,xmelnitsk,vilage,1404.0,390.0,48.959722222222226,26.909444444444443
991,Тарноруда (Хмельницький район),xmelnitsk,vilage,1404.0,856.0,49.41361111111111,26.236944444444447
992,Горохолина,ivan_frank,vilage,1404.0,2414.0,48.76555555555556,24.5825
993,Новосілка (Деражнянський район),xmelnitsk,vilage,1404.0,534.0,49.24527777777778,27.320833333333333
994,Лози (Кременецький район),ternopil,vilage,1405.0,664.0,49.907222222222224,25.781666666666666
995,Калини (Тячівський район),zakarpat,vilage,1405.0,5844.0,48.13944444444444,23.866944444444446
996,Боришківці (Кам'янець-Подільський район),xmelnitsk,vilage,1405.0,508.0,48.71333333333334,26.684722222222224
997,Княже (Коломийський район),ivan_frank,vilage,1405.0,1421.0,48.408055555555556,25.455555555555556
998,Княжпіль (Кам'янець-Подільський район),xmelnitsk,vilage,1405.0,790.0,48.70416666666667,26.765555555555554
999,Верхня Білка,lviv,vilage,1405.0,1512.0,49.82361111111111,24.301944444444445
1000,Здомишель,Volins,vilage,1405.0,914.0,51.62027777777778,24.41611111111111
1001,Матеївці,ivan_frank,vilage,1405.0,1077.0,48.49777777777778,25.162499999999998
1002,Кульчіївці,xmelnitsk,vilage,1405.0,1039.0,48.66972222222222,26.714166666666667
1003,Посада-Новоміська,lviv,vilage,1406.0,602.0,49.60111111111111,22.873333333333335
1004,Чомонин,zakarpat,vilage,1406.0,2265.0,48.40138888888889,22.45888888888889
1005,Репехів,lviv,vilage,1406.0,258.0,49.54361111111111,24.34722222222222
1006,Батятичі,lviv,vilage,1406.0,2000.0,50.109722222222224,24.26638888888889
1007,Завидово (Україна),zakarpat,vilage,1406.0,1647.0,48.393055555555556,22.904722222222222
1008,Мала Озимина,lviv,vilage,1406.0,140.0,49.469166666666666,23.365000000000002
1009,Боневичі,lviv,vilage,1406.0,613.0,49.59166666666667,22.83138888888889
1010,Болозів,lviv,vilage,1406.0,691.0,49.59138888888889,22.918333333333333
1011,Цвіклівці Перші,xmelnitsk,vilage,1406.0,350.0,48.575833333333335,26.62638888888889
1012,Губичі (Самбірський район),lviv,vilage,1406.0,505.0,49.61194444444445,22.77583333333333
1013,Ворончин,Volins,vilage,1407.0,561.0,50.90277777777778,24.870555555555555
1014,Ляхівці,zakarpat,vilage,1407.0,430.0,48.56111111111111,22.478055555555553
1015,Миньківці (Кам'янець-Подільський район),xmelnitsk,vilage,1407.0,1479.0,48.85388888888889,27.1075
1016,Студині,Volins,vilage,1407.0,186.0,50.8825,24.860277777777778
1017,Страшевичі,lviv,vilage,1407.0,1145.0,49.450833333333335,23.067777777777778
1018,Сутківці,xmelnitsk,vilage,1407.0,1249.0,49.175,26.929166666666667
1019,Павлівка (Володимир-Волинський район),Volins,vilage,1407.0,914.0,50.61944444444445,24.46222222222222
1020,Чорниводи,xmelnitsk,vilage,1407.0,2774.0,49.14611111111111,26.625
1021,Мена (місто),,city,1408.0,11835.0,51.516666666666666,32.21666666666667
1022,Золотковичі,lviv,vilage,1408.0,562.0,49.71055555555556,23.040000000000003
1023,Наконечне Перше,lviv,vilage,1408.0,1154.0,49.933055555555555,23.33722222222222
1024,Бишів (Червоноградський район),lviv,vilage,1408.0,860.0,50.3875,24.519444444444442
1025,Бабин (Косівський район),ivan_frank,vilage,1408.0,855.0,48.27611111111111,25.04277777777778
1026,Нижні Гаї,lviv,vilage,1409.0,1249.0,49.347500000000004,23.67666666666667
1027,Стрілківці,ternopil,vilage,1409.0,1035.0,48.76638888888889,25.989444444444445
1028,Миклашів,lviv,vilage,1409.0,1029.0,49.83166666666667,24.225277777777777
1029,Берездівці,lviv,vilage,1410.0,1738.0,49.45583333333334,24.149166666666666
1030,Посухів (Мурованокуриловецький район),Vinitsa,vilage,1410.0,297.0,48.757777777777775,27.56277777777778
1031,Семенів (Тернопільський район),ternopil,vilage,1410.0,545.0,49.27833333333333,25.675
1032,Сойми,zakarpat,vilage,1410.0,1068.0,48.57222222222222,23.460833333333333
1033,Колодязне (Березнівський район),rivne,vilage,1410.0,1430.0,50.916666666666664,26.88361111111111
1034,Чома,zakarpat,vilage,1410.0,916.0,48.135555555555555,22.633055555555558
1035,Братковичі,lviv,vilage,1410.0,1314.0,49.7875,23.586944444444445
1036,Залісся Перше,xmelnitsk,vilage,1410.0,1188.0,48.70111111111111,26.380555555555556
1037,Ямпіль (Львівський район),lviv,vilage,1410.0,2243.0,49.873333333333335,24.18111111111111
1038,Лецівка,ivan_frank,vilage,1410.0,414.0,48.825833333333335,24.110000000000003
1039,Шкнева,kyiv,vilage,1410.0,139.0,51.11944444444445,29.497500000000002
1040,Суржа (село),xmelnitsk,vilage,1410.0,206.0,48.663333333333334,26.46611111111111
1041,Махнівка (Козятинський район),Vinitsa,vilage,1410.0,3467.0,49.721944444444446,28.676944444444445
1042,Ліски (Коломийський район),ivan_frank,vilage,1410.0,959.0,48.64694444444444,25.0375
1043,Грімне,lviv,vilage,1410.0,1290.0,49.60138888888889,23.770555555555553
1044,Романів (Львівський район),lviv,vilage,1410.0,900.0,49.70944444444445,24.341388888888886
1045,Кадиївці,xmelnitsk,vilage,1410.0,1703.0,48.70611111111111,26.44527777777778
1046,Містковичі,lviv,vilage,1410.0,378.0,49.613055555555555,23.2575
1047,Чижиків,lviv,vilage,1410.0,1127.0,49.79055555555556,24.254444444444445
1048,Торговиця (Городенківський район),ivan_frank,vilage,1410.0,2100.0,48.595555555555556,25.43888888888889
1049,Облазниця,lviv,vilage,1411.0,288.0,49.27055555555555,24.128333333333334
1050,Кам'янка-Бузька,,city,1411.0,10762.0,50.105000000000004,24.337777777777777
1051,Космач (Косівський район),ivan_frank,vilage,1412.0,6054.0,48.33361111111111,24.81888888888889
1052,Хмільник (село),zakarpat,vilage,1412.0,866.0,48.27972222222222,22.905555555555555
1053,Топорівці (Коломийський район),ivan_frank,vilage,1412.0,2702.0,48.57222222222222,25.482777777777777
1054,Міжріччя (Болехівська міська рада),ivan_frank,vilage,1412.0,1706.0,49.10888888888889,23.949722222222224
1055,Оноківці,zakarpat,vilage,1412.0,2187.0,48.65416666666667,22.341666666666665
1056,Богаревиця,zakarpat,vilage,1412.0,513.0,48.28944444444444,22.921111111111113
1057,Довге (Стрийський район),lviv,vilage,1412.0,963.0,49.17444444444444,23.86722222222222
1058,Чорнівка,chernivtsi,vilage,1412.0,2364.0,48.41861111111111,26.010555555555555
1059,Іваннє,rivne,vilage,1412.0,987.0,50.467777777777776,25.74888888888889
1060,Кам'янське (Берегівський район),zakarpat,vilage,1412.0,1482.0,48.27972222222222,22.93861111111111
1061,Воловиця (Берегівський район),zakarpat,vilage,1412.0,249.0,48.29138888888889,22.905555555555555
1062,Думанів,xmelnitsk,vilage,1412.0,897.0,48.82027777777778,26.540000000000003
1063,Кривеньке,ternopil,vilage,1413.0,414.0,49.00416666666667,26.109722222222224
1064,Суховерхів,chernivtsi,vilage,1413.0,1881.0,48.46194444444445,25.751944444444444
1065,Кіцмань,,city,1413.0,6287.0,48.441111111111105,25.766944444444444
1066,Гаврилівці (Кіцманський район),chernivtsi,vilage,1413.0,341.0,48.465833333333336,25.65888888888889
1067,Устечко (Чортківський район),ternopil,vilage,1414.0,881.0,48.76833333333333,25.603333333333335
1068,Яблунів (Чортківський район),ternopil,vilage,1414.0,1910.0,49.143055555555556,25.845
1069,Пульмо,Volins,vilage,1414.0,1403.0,51.51277777777778,23.788333333333334
1070,Золотарьово (Україна),zakarpat,vilage,1414.0,4266.0,48.18083333333333,23.501666666666665
1071,Ворвулинці,ternopil,vilage,1414.0,708.0,48.794444444444444,25.740555555555556
1072,Пулемець,Volins,vilage,1414.0,667.0,51.54194444444444,23.710555555555555
1073,Гвоздів (Васильківський район),kyiv,vilage,1415.0,450.0,50.24916666666667,30.484722222222224
1074,Веселівка (Хмельницький район),xmelnitsk,vilage,1415.0,240.0,49.5825,27.097777777777775
1075,Пилипче (Чортківський район),ternopil,vilage,1415.0,1079.0,48.64083333333333,26.086944444444445
1076,Терло,lviv,vilage,1415.0,926.0,49.468611111111116,22.77722222222222
1077,Чуква,lviv,vilage,1415.0,1537.0,49.46027777777778,23.17777777777778
1078,Войславичі,lviv,vilage,1415.0,652.0,50.558055555555555,24.199722222222224
1079,Лежанівка,ternopil,vilage,1415.0,254.0,49.30972222222222,26.053611111111113
1080,Новосілки (Фастівський район),kyiv,vilage,1415.0,941.0,50.30638888888888,30.07
1081,Ніжиловичі,kyiv,vilage,1415.0,846.0,50.48916666666667,29.62777777777778
1082,Любинці,lviv,vilage,1415.0,1030.0,49.14666666666667,23.691111111111113
1083,Березово (Україна),zakarpat,vilage,1415.0,3560.0,48.303888888888885,23.489166666666666
1084,Водотиї,zitomer,vilage,1415.0,505.0,50.225,29.440555555555555
1085,Шпиколоси (Золочівський район),lviv,vilage,1415.0,903.0,49.736666666666665,24.858333333333334
1086,Лібухова,lviv,vilage,1415.0,306.0,49.448055555555555,22.806944444444444
1087,Білинівка,ternopil,vilage,1415.0,36.0,49.29527777777778,26.066666666666666
1088,Сарни (Яворівський район),lviv,vilage,1415.0,372.0,49.9175,23.175555555555558
1089,Мигалки,kyiv,vilage,1415.0,1157.0,50.67666666666666,29.55611111111111
1090,Микуличі (Бородянський район),kyiv,vilage,1415.0,2543.0,50.57555555555556,30.07
1091,Стопчатів,ivan_frank,vilage,1416.0,2831.0,48.41694444444444,24.974444444444444
1092,Чуднів,,city,1416.0,5777.0,50.05277777777778,28.096944444444443
1093,Старий Лисець,ivan_frank,vilage,1416.0,4100.0,48.87416666666667,24.579166666666666
1094,Малий Ключів,ivan_frank,vilage,1416.0,1313.0,48.47416666666667,24.915277777777778
1095,Велика Кам'янка (село),ivan_frank,vilage,1416.0,2301.0,48.64972222222222,25.09638888888889
1096,Великий Ключів,ivan_frank,vilage,1416.0,5789.0,48.461111111111116,24.942777777777778
1097,Страдч,lviv,vilage,1416.0,3265.0,49.89,23.77
1098,Андріївка (Ужгородський район),zakarpat,vilage,1417.0,280.0,48.52611111111111,22.549722222222226
1099,Дмитре,lviv,vilage,1417.0,680.0,49.59305555555556,23.878055555555555
1100,Тщенець,lviv,vilage,1418.0,573.0,49.786944444444444,23.08
1101,Привороки,chernivtsi,vilage,1418.0,1284.0,48.10138888888889,26.035555555555558
1102,Гуральня (село),lviv,vilage,1418.0,299.0,49.64333333333333,24.770833333333332
1103,Красилівка (Івано-Франківський район),ivan_frank,vilage,1418.0,746.0,48.77972222222222,24.88138888888889
1104,Городок (Чортківський район),ternopil,vilage,1418.0,727.0,48.62861111111111,25.855833333333333
1105,Тарашани,chernivtsi,vilage,1418.0,987.0,48.11833333333333,25.997500000000002
1106,Лисівці,ternopil,vilage,1418.0,1943.0,48.85305555555556,25.82027777777778
1107,Варяж,lviv,vilage,1419.0,888.0,50.51694444444444,24.092499999999998
1108,Пуків,ivan_frank,vilage,1419.0,1052.0,49.4,24.693055555555556
1109,Креховичі,ivan_frank,vilage,1419.0,2375.0,49.00083333333333,24.15222222222222
1110,Дубівці (Івано-Франківський район),ivan_frank,vilage,1419.0,2059.0,49.081388888888895,24.77361111111111
1111,Палагичі,ivan_frank,vilage,1419.0,1284.0,48.90277777777778,24.995555555555555
1112,Васьківчики,xmelnitsk,vilage,1419.0,348.0,49.89833333333333,26.770833333333332
1113,Добрянське (Тячівський район),zakarpat,vilage,1419.0,2714.0,48.0675,23.709722222222222
1114,Надрічне (Бережанська міська громада),ternopil,vilage,1420.0,730.0,49.535555555555554,24.95638888888889
1115,Буківцьово,zakarpat,vilage,1420.0,235.0,48.82361111111111,22.671111111111113
1116,Пилява (Хмельницький район),xmelnitsk,vilage,1420.0,672.0,49.60277777777778,27.453333333333333
1117,Воронівці (Хмельницький район),xmelnitsk,vilage,1420.0,570.0,49.801111111111105,26.26527777777778
1118,Блищиводи,lviv,vilage,1420.0,309.0,50.05,24.073055555555555
1119,Малий Лазучин,xmelnitsk,vilage,1420.0,189.0,49.75972222222222,26.444166666666668
1120,Кусиківці,Vinitsa,vilage,1420.0,433.0,49.41083333333333,27.91888888888889
1121,Фадіївка,xmelnitsk,vilage,1420.0,172.0,49.990833333333335,27.435555555555556
1122,Жуків (Тернопільський район),ternopil,vilage,1420.0,883.0,49.51583333333333,24.940833333333334
1123,Горобіївка (Білоцерківський район),kyiv,vilage,1420.0,1065.0,49.61611111111111,29.671666666666667
1124,Шидлівці (Чортківський район),ternopil,vilage,1420.0,241.0,49.007777777777775,26.209444444444443
1125,Колісниківка (Куп'янський район),xarkiv,vilage,1420.0,476.0,49.56111111111111,37.71805555555556
1126,Великий Лазучин,xmelnitsk,vilage,1420.0,371.0,49.771388888888886,26.502777777777776
1127,Новоставці (Хмельницький район),xmelnitsk,vilage,1420.0,1012.0,49.86472222222223,26.393055555555556
1128,Завадів (Яворівський район),lviv,vilage,1420.0,1236.0,50.06055555555555,23.3925
1129,Малий Кучурів,chernivtsi,vilage,1420.0,1280.0,48.46666666666667,25.90888888888889
1130,Єлизаветпіль (Хмельницький район),xmelnitsk,vilage,1420.0,236.0,49.717222222222226,26.383888888888887
1131,Надорожна,ivan_frank,vilage,1420.0,1023.0,48.88305555555556,24.942777777777778
1132,Турівка (Хмельницький район),xmelnitsk,vilage,1421.0,390.0,49.88472222222222,26.474444444444444
1133,Коров'є (Україна),xmelnitsk,vilage,1421.0,751.0,49.847500000000004,26.44472222222222
1134,Берем'яни (Чортківський район),ternopil,vilage,1421.0,700.0,48.886944444444445,25.447222222222223
1135,Бобівці,chernivtsi,vilage,1421.0,1852.0,48.263888888888886,25.68777777777778
1136,Поляхова,xmelnitsk,vilage,1421.0,1118.0,49.90277777777778,26.57361111111111
1137,Стара Ропа,lviv,vilage,1421.0,857.0,49.4925,22.988333333333333
1138,Рекшин,ternopil,vilage,1421.0,356.0,49.566111111111105,24.849166666666665
1139,Катеринівка (Кременецький район),ternopil,vilage,1421.0,391.0,50.00555555555555,25.884166666666665
1140,Рідка,xmelnitsk,vilage,1421.0,202.0,49.905833333333334,26.532777777777778
1141,Любківці,ivan_frank,vilage,1421.0,690.0,48.471111111111114,25.366111111111113
1142,Горигляди,ternopil,vilage,1421.0,1220.0,48.87555555555556,25.148055555555555
1143,Маяки (Одеський район),odesa,vilage,1421.0,5937.0,46.41222222222222,30.273055555555555
1144,Бібщани,lviv,vilage,1421.0,370.0,49.629444444444445,24.895
1145,Руда (Кам'янець-Подільський район),xmelnitsk,vilage,1422.0,749.0,48.55583333333333,26.5675
1146,Свірж (Львівський район),lviv,vilage,1422.0,795.0,49.65,24.43888888888889
1147,Стрільбичі,lviv,vilage,1422.0,1831.0,49.4525,22.958333333333332
1148,Тершів,lviv,vilage,1422.0,1003.0,49.415,22.985555555555557
1149,Малі Нагірці,lviv,vilage,1423.0,374.0,49.99944444444444,24.388333333333332
1150,Залав'є,ternopil,vilage,1423.0,523.0,49.25666666666667,25.698611111111113
1151,Старостав,Volins,vilage,1423.0,189.0,50.48888888888889,24.803611111111113
1152,Вільшаник,lviv,vilage,1423.0,1199.0,49.44555555555555,23.236666666666668
1153,Бакоти,ternopil,vilage,1423.0,275.0,49.85722222222223,25.647222222222222
1154,Руданці,lviv,vilage,1423.0,614.0,49.950833333333335,24.258055555555554
1155,Млинівці (Кременецький район),ternopil,vilage,1423.0,430.0,49.87138888888889,25.64527777777778
1156,Замок (Львівський район),lviv,vilage,1424.0,626.0,50.1575,23.65694444444444
1157,Литячі,ternopil,vilage,1424.0,830.0,48.830000000000005,25.485277777777778
1158,Ковиничі,lviv,vilage,1424.0,378.0,49.62138888888889,23.233055555555556
1159,Коханівка (Яворівський район),lviv,vilage,1424.0,532.0,49.974444444444444,23.259166666666665
1160,Золочів,,city,1424.0,24269.0,49.80611111111111,24.89638888888889
1161,Косів,,city,1424.0,8627.0,48.315,25.095277777777778
1162,Плебанівка (Тернопільський район),ternopil,vilage,1425.0,1172.0,49.279444444444444,25.731666666666666
1163,Новосілки-Гостинні,lviv,vilage,1425.0,1402.0,49.629444444444445,23.460833333333333
1164,Бражинці,xmelnitsk,vilage,1425.0,551.0,49.97138888888889,27.51388888888889
1165,Переспа (Червоноградський район),lviv,vilage,1425.0,742.0,50.401666666666664,24.441666666666666
1166,Кошляки (Житомирський район),zitomer,vilage,1425.0,280.0,50.00416666666667,29.675833333333333
1167,Трускавець,,city,1425.0,28701.0,49.27777777777778,23.50777777777778
1168,Шоломиничі,lviv,vilage,1426.0,538.0,49.72833333333333,23.53111111111111
1169,Волсвин,lviv,vilage,1426.0,1824.0,50.336666666666666,24.297222222222224
1170,Літки (Броварський район),kyiv,vilage,1426.0,2499.0,50.70277777777778,30.746111111111112
1171,Стрільче (Коломийський район),ivan_frank,vilage,1426.0,1608.0,48.68111111111111,25.561666666666667
1172,Похівка,ivan_frank,vilage,1426.0,498.0,48.796388888888885,24.586388888888887
1173,Градівка (Львівський район),lviv,vilage,1426.0,1524.0,49.69222222222222,23.543333333333337
1174,Спасів (Червоноградський район),lviv,vilage,1426.0,680.0,50.44638888888888,24.456666666666667
1175,Тартаків,lviv,vilage,1426.0,1505.0,50.45944444444445,24.398333333333333
1176,Черхава,lviv,vilage,1427.0,543.0,49.415277777777774,23.221944444444443
1177,Угринь,ternopil,vilage,1427.0,989.0,48.97027777777778,25.840277777777775
1178,Братківці (Івано-Франківський район),ivan_frank,vilage,1427.0,2362.0,48.81111111111111,24.723888888888887
1179,Залужжя (Львівський район),lviv,vilage,1427.0,258.0,49.83888888888889,23.754444444444445
1180,Переможне (Львівський район),lviv,vilage,1427.0,2000.0,49.63055555555555,23.663055555555555
1181,Сороки-Львівські,lviv,vilage,1427.0,1378.0,49.87388888888889,24.127222222222223
1182,Береги (Львівський район),lviv,vilage,1427.0,47.0,49.689166666666665,23.95611111111111
1183,Повітно,lviv,vilage,1427.0,881.0,49.83861111111111,23.728055555555553
1184,Угри (село),lviv,vilage,1427.0,1134.0,49.730000000000004,23.611111111111114
1185,Коропець (село),lviv,vilage,1427.0,308.0,49.66916666666666,24.890277777777776
1186,Воютичі,lviv,vilage,1427.0,2099.0,49.558055555555555,23.08972222222222
1187,Часлівці,zakarpat,vilage,1427.0,820.0,48.53944444444444,22.304722222222225
1188,Печорна,ternopil,vilage,1427.0,511.0,48.669999999999995,25.67638888888889
1189,Делева,ivan_frank,vilage,1427.0,1712.0,48.91166666666666,25.22083333333333
1190,Синьків (Чортківський район),ternopil,vilage,1427.0,1221.0,48.617222222222225,25.95722222222222
1191,Гиньківці,ternopil,vilage,1427.0,350.0,48.77361111111111,25.748333333333335
1192,Комарно,,city,1427.0,3794.0,49.63055555555555,23.703055555555554
1193,Малий Березний,zakarpat,vilage,1427.0,1597.0,48.86416666666667,22.442777777777778
1194,Вовчухи,lviv,vilage,1428.0,747.0,49.7825,23.529722222222222
1195,Козаровичі,kyiv,vilage,1428.0,1804.0,50.75805555555556,30.35638888888889
1196,Косиківці,xmelnitsk,vilage,1428.0,393.0,48.7175,27.10527777777778
1197,Княгинин (Кам'янець-Подільський район),xmelnitsk,vilage,1428.0,766.0,48.61027777777778,26.461666666666666
1198,Сихів (село),lviv,vilage,1428.0,833.0,49.21138888888889,24.031666666666666
1199,Лукавці,chernivtsi,vilage,1428.0,2608.0,48.197222222222216,25.423333333333336
1200,Ступно,rivne,vilage,1428.0,930.0,50.338055555555556,26.011666666666667
1201,Коблин,rivne,vilage,1428.0,73.0,50.47166666666667,25.68888888888889
1202,Попівці (Чортківський район),ternopil,vilage,1428.0,400.0,48.88361111111111,25.572222222222223
